{"type":"FeatureCollection","features":[{"type":"Feature","properties":{"OBJECTID":1,"BOARD":"OCSB","CATEGORY":"Elementary","NAME":"St. Elizabeth Ann Seton School","NUM":"41","STREET":"prom. Weybridge Dr","PHONE":"613-825-3596","FULL_BOARD":"Ottawa Catholic School Board","CATEGORY_FR":"Élémentaire","NAME_FR":"École St. Elizabeth Ann Seton","BOARD_FR":"OCSB","FULL_BOARD_FR":"Ottawa Catholic School Board"},"geometry":{"type":"Point","coordinates":[-75.7695259697474,45.27115797356134]}},{"type":"Feature","properties":{"OBJECTID":2,"BOARD":"OCDSB","CATEGORY":"Elementary","NAME":"Mary Honeywell Elementary School","NUM":"54","STREET":"prom. Kennevale Dr","PHONE":"613-825-4834","FULL_BOARD":"Ottawa-Carleton District School Board","CATEGORY_FR":"Élémentaire","NAME_FR":"École élémentaire Mary Honeywell","BOARD_FR":"OCDSB","FULL_BOARD_FR":"Ottawa-Carleton District School Board"},"geometry":{"type":"Point","coordinates":[-75.76734376069966,45.26850538120929]}},{"type":"Feature","properties":{"OBJECTID":3,"BOARD":"OCSB","CATEGORY":"Elementary","NAME":"St. Patrick School","NUM":"68","STREET":"prom. Larkin Dr","PHONE":"613-825-4012","FULL_BOARD":"Ottawa Catholic School Board","CATEGORY_FR":"Élémentaire","NAME_FR":"École St. Patrick ","BOARD_FR":"OCSB","FULL_BOARD_FR":"Ottawa Catholic School Board"},"geometry":{"type":"Point","coordinates":[-75.76083313982963,45.283537020186245]}},{"type":"Feature","properties":{"OBJECTID":4,"BOARD":"OCDSB","CATEGORY":"Elementary","NAME":"Barrhaven Public School","NUM":"80","STREET":"prom. Larkin  Dr","PHONE":"613-825-2691","FULL_BOARD":"Ottawa-Carleton District School Board","CATEGORY_FR":"Élémentaire","NAME_FR":"École publique Barrhaven ","BOARD_FR":"OCDSB","FULL_BOARD_FR":"Ottawa-Carleton District School Board"},"geometry":{"type":"Point","coordinates":[-75.76403223818575,45.28110234151081]}},{"type":"Feature","properties":{"OBJECTID":5,"BOARD":"OCDSB","CATEGORY":"Elementary","NAME":"Jockvale Elementary School","NUM":"101","STREET":"prom. Malvern Dr","PHONE":"613-825-1224","FULL_BOARD":"Ottawa-Carleton District School Board","CATEGORY_FR":"Élémentaire","NAME_FR":"École élémentaire Jockvale","BOARD_FR":"OCDSB","FULL_BOARD_FR":"Ottawa-Carleton District School Board"},"geometry":{"type":"Point","coordinates":[-75.76006783898795,45.27942212961801]}},{"type":"Feature","properties":{"OBJECTID":6,"BOARD":"OCSB","CATEGORY":"Elementary","NAME":"St. Rose of Lima School","NUM":"50","STREET":"prom. Bayshore Dr","PHONE":"613-828-5158","FULL_BOARD":"Ottawa Catholic School Board","CATEGORY_FR":"Élémentaire","NAME_FR":"École St. Rose of Lima","BOARD_FR":"OCSB","FULL_BOARD_FR":"Ottawa Catholic School Board"},"geometry":{"type":"Point","coordinates":[-75.80685656361184,45.350685290823726]}},{"type":"Feature","properties":{"OBJECTID":7,"BOARD":"OCDSB","CATEGORY":"Secondary","NAME":"Glebe Collegiate Institute","NUM":"212","STREET":"av. Glebe Ave","PHONE":"613-239-2424","FULL_BOARD":"Ottawa-Carleton District School Board","CATEGORY_FR":"Secondaire","NAME_FR":"École secondaire supérieure Glebe","BOARD_FR":"OCDSB","FULL_BOARD_FR":"Ottawa-Carleton District School Board"},"geometry":{"type":"Point","coordinates":[-75.69703212843991,45.40161831253784]}},{"type":"Feature","properties":{"OBJECTID":8,"BOARD":"OCDSB","CATEGORY":"Secondary","NAME":"Ridgemont High School","NUM":"2597","STREET":"prom. Alta Vista Dr","PHONE":"613-733-4860","FULL_BOARD":"Ottawa-Carleton District School Board","CATEGORY_FR":"Secondaire","NAME_FR":"École secondaire Ridgemont ","BOARD_FR":"OCDSB","FULL_BOARD_FR":"Ottawa-Carleton District School Board"},"geometry":{"type":"Point","coordinates":[-75.65913904907043,45.376132291147684]}},{"type":"Feature","properties":{"OBJECTID":9,"BOARD":"CECCE","CATEGORY":"Secondary","NAME":"Franco-Cité Catholic Secondary School","NUM":"623","STREET":"ch. Smyth Rd","PHONE":"613-521-4999","FULL_BOARD":"Conseil des écoles catholiques du Centre-Est","CATEGORY_FR":"Secondaire","NAME_FR":"École secondaire catholique Franco-Cité","BOARD_FR":"CECCE","FULL_BOARD_FR":"Conseil des écoles catholiques du Centre-Est"},"geometry":{"type":"Point","coordinates":[-75.64174179917107,45.40042489806127]}},{"type":"Feature","properties":{"OBJECTID":10,"BOARD":"CECCE","CATEGORY":"Secondary","NAME":"Samuel-Genest Catholic College Secondary School","NUM":"704","STREET":"ch. Carson's Rd","PHONE":"613-744-8344","FULL_BOARD":"Conseil des écoles catholiques du Centre-Est","CATEGORY_FR":"Secondaire","NAME_FR":"Collège catholique Samuel-Genest","BOARD_FR":"CECCE","FULL_BOARD_FR":"Conseil des écoles catholiques du Centre-Est"},"geometry":{"type":"Point","coordinates":[-75.63031054224622,45.44273866604375]}},{"type":"Feature","properties":{"OBJECTID":11,"BOARD":"CÉPEO","CATEGORY":"Secondary","NAME":"Gisèle-Lalonde Public High School ","NUM":"500","STREET":"boul. Millenium Blvd","PHONE":"613-833-0018","FULL_BOARD":"Conseil des écoles publiques de l'Est de l'Ontario","CATEGORY_FR":"Secondaire","NAME_FR":"École secondaire publique Gisèle-Lalonde","BOARD_FR":"CÉPEO","FULL_BOARD_FR":"Conseil des écoles publiques de l'Est de l'Ontario"},"geometry":{"type":"Point","coordinates":[-75.4449475994861,45.46885890282709]}},{"type":"Feature","properties":{"OBJECTID":12,"BOARD":"CÉPEO","CATEGORY":"Secondary","NAME":"Le Carrefour Adult School","NUM":"2445","STREET":"boul. St-Laurent Blvd","PHONE":"613-731-7212","FULL_BOARD":"Conseil des écoles publiques de l'Est de l'Ontario","CATEGORY_FR":"Secondaire","NAME_FR":"Écoles des adultes Le Carrefour","BOARD_FR":"CÉPEO","FULL_BOARD_FR":"Conseil des écoles publiques de l'Est de l'Ontario"},"geometry":{"type":"Point","coordinates":[-75.6402741271683,45.400384612039545]}},{"type":"Feature","properties":{"OBJECTID":13,"BOARD":"OCDSB","CATEGORY":"Elementary","NAME":"Bayshore Public School","NUM":"145","STREET":"crois. Woodridge  Cr","PHONE":"613-828-8698","FULL_BOARD":"Ottawa-Carleton District School Board","CATEGORY_FR":"Élémentaire","NAME_FR":"École publique Bayshore","BOARD_FR":"OCDSB","FULL_BOARD_FR":"Ottawa-Carleton District School Board"},"geometry":{"type":"Point","coordinates":[-75.81051898334711,45.349663600766675]}},{"type":"Feature","properties":{"OBJECTID":14,"BOARD":"OCSB","CATEGORY":"Elementary","NAME":"Georges Vanier Catholic School","NUM":"40","STREET":"prom. Varley Dr","PHONE":"613-592-4371","FULL_BOARD":"Ottawa Catholic School Board","CATEGORY_FR":"Élémentaire","NAME_FR":"École catholique Georges Vanier","BOARD_FR":"OCSB","FULL_BOARD_FR":"Ottawa Catholic School Board"},"geometry":{"type":"Point","coordinates":[-75.9072713959143,45.3322171944677]}},{"type":"Feature","properties":{"OBJECTID":15,"BOARD":"OCDSB","CATEGORY":"Elementary","NAME":"Stephen Leacock Public School","NUM":"25","STREET":"prom. Leacock Dr","PHONE":"613-592-2261","FULL_BOARD":"Ottawa-Carleton District School Board","CATEGORY_FR":"Élémentaire","NAME_FR":"École publique Stephen Leacock","BOARD_FR":"OCDSB","FULL_BOARD_FR":"Ottawa-Carleton District School Board"},"geometry":{"type":"Point","coordinates":[-75.90280562360024,45.32495016971493]}},{"type":"Feature","properties":{"OBJECTID":16,"BOARD":"OCDSB","CATEGORY":"Elementary","NAME":"W. Erskine Johnston Public School","NUM":"50","STREET":"prom. Varley Dr","PHONE":"613-592-4492","FULL_BOARD":"Ottawa-Carleton District School Board","CATEGORY_FR":"Élémentaire","NAME_FR":"École publique W. Erskine Johnston","BOARD_FR":"OCDSB","FULL_BOARD_FR":"Ottawa-Carleton District School Board"},"geometry":{"type":"Point","coordinates":[-75.90892536862553,45.33264874665159]}},{"type":"Feature","properties":{"OBJECTID":17,"BOARD":"OCSB","CATEGORY":"Elementary","NAME":"St. Stephen School","NUM":"1145","STREET":"rue Stittsville Main St","PHONE":"613-831-8844","FULL_BOARD":"Ottawa Catholic School Board","CATEGORY_FR":"Élémentaire","NAME_FR":"École St. Stephen","BOARD_FR":"OCSB","FULL_BOARD_FR":"Ottawa Catholic School Board"},"geometry":{"type":"Point","coordinates":[-75.93110570544171,45.27477853417772]}},{"type":"Feature","properties":{"OBJECTID":18,"BOARD":"OCSB","CATEGORY":"Elementary","NAME":"St. Martin de Porres School","NUM":"20","STREET":"prom. Mckitrick Dr","PHONE":"613-836-4754","FULL_BOARD":"Ottawa Catholic School Board","CATEGORY_FR":"Élémentaire","NAME_FR":"École St. Martin de Porres","BOARD_FR":"OCSB","FULL_BOARD_FR":"Ottawa Catholic School Board"},"geometry":{"type":"Point","coordinates":[-75.8843775829635,45.29258377137534]}},{"type":"Feature","properties":{"OBJECTID":19,"BOARD":"OCDSB","CATEGORY":"Elementary","NAME":"John Young Elementary School","NUM":"5","STREET":"prom. Morton Dr","PHONE":"613-836-5987","FULL_BOARD":"Ottawa-Carleton District School Board","CATEGORY_FR":"Élémentaire","NAME_FR":"École élémentaire John Young","BOARD_FR":"OCDSB","FULL_BOARD_FR":"Ottawa-Carleton District School Board"},"geometry":{"type":"Point","coordinates":[-75.88417871751915,45.28975717298553]}},{"type":"Feature","properties":{"OBJECTID":20,"BOARD":"OCDSB","CATEGORY":"Elementary","NAME":"Glen Cairn Public School","NUM":"182","STREET":"ch. Morrena Rd","PHONE":"613-836-2342","FULL_BOARD":"Ottawa-Carleton District School Board","CATEGORY_FR":"Élémentaire","NAME_FR":"École publique Glen Cairn","BOARD_FR":"OCDSB","FULL_BOARD_FR":"Ottawa-Carleton District School Board"},"geometry":{"type":"Point","coordinates":[-75.88451545549499,45.29635491186333]}},{"type":"Feature","properties":{"OBJECTID":21,"BOARD":"OCSB","CATEGORY":"Elementary","NAME":"Monsignor Paul Baxter School","NUM":"333","STREET":"prom. Beatrice Dr.","PHONE":"613-825-7544","FULL_BOARD":"Ottawa Catholic School Board","CATEGORY_FR":"Élémentaire","NAME_FR":"École Monsignor Paul Baxter","BOARD_FR":"OCSB","FULL_BOARD_FR":"Ottawa Catholic School Board"},"geometry":{"type":"Point","coordinates":[-75.72850803778005,45.28087610481096]}},{"type":"Feature","properties":{"OBJECTID":27,"BOARD":"OCDSB","CATEGORY":"Elementary","NAME":"Devonshire Community Public School","NUM":"100","STREET":"av. Breezehill Ave","PHONE":"613-729-3169","FULL_BOARD":"Ottawa-Carleton District School Board","CATEGORY_FR":"Élémentaire","NAME_FR":"École publique communautaire Devonshire","BOARD_FR":"OCDSB","FULL_BOARD_FR":"Ottawa-Carleton District School Board"},"geometry":{"type":"Point","coordinates":[-75.71889564832,45.4054699669651]}},{"type":"Feature","properties":{"OBJECTID":28,"BOARD":"PRIVATE","CATEGORY":"Elementary","NAME":"Kanata Montessori School","NUM":"355","STREET":"prom. Micheal Cowpland Dr","PHONE":"613-592-2189","FULL_BOARD":" ","CATEGORY_FR":"Élémentaire","NAME_FR":"École Montessori Kanata","BOARD_FR":"PRIVATE","FULL_BOARD_FR":" "},"geometry":{"type":"Point","coordinates":[-75.87703212805552,45.28461048679706]}},{"type":"Feature","properties":{"OBJECTID":29,"BOARD":"PRIVATE","CATEGORY":"Elementary","NAME":"Heritage Academy","NUM":"207","STREET":"av. Bayswater Ave","PHONE":"613-722-0133","FULL_BOARD":" ","CATEGORY_FR":"Élémentaire","NAME_FR":"Académie Heritage","BOARD_FR":"PRIVATE","FULL_BOARD_FR":" "},"geometry":{"type":"Point","coordinates":[-75.71583376223364,45.39962035168877]}},{"type":"Feature","properties":{"OBJECTID":30,"BOARD":"OCSB","CATEGORY":"Elementary","NAME":"St. John XXIII School","NUM":"165","STREET":"ch. Knoxdale Rd","PHONE":"613-226-6223","FULL_BOARD":"Ottawa Catholic School Board","CATEGORY_FR":"Élémentaire","NAME_FR":"École St. John-XXIII","BOARD_FR":"OCSB","FULL_BOARD_FR":"Ottawa Catholic School Board"},"geometry":{"type":"Point","coordinates":[-75.76864583726295,45.32787042409866]}},{"type":"Feature","properties":{"OBJECTID":31,"BOARD":"OCSB","CATEGORY":"Elementary","NAME":"St. Jerome School","NUM":"4330","STREET":"ch. Spratt Rd","PHONE":"613-822-1116","FULL_BOARD":"Ottawa Catholic School Board","CATEGORY_FR":"Élémentaire","NAME_FR":"École St. Jerome","BOARD_FR":"OCSB","FULL_BOARD_FR":"Ottawa Catholic School Board"},"geometry":{"type":"Point","coordinates":[-75.68968371358308,45.27672586853806]}},{"type":"Feature","properties":{"OBJECTID":32,"BOARD":"OCDSB","CATEGORY":"Elementary","NAME":"Regina Street Alternative School","NUM":"2599","STREET":"rue Regina St","PHONE":"613-829-8777","FULL_BOARD":"Ottawa-Carleton District School Board","CATEGORY_FR":"Élémentaire","NAME_FR":"École alternative de la rue Regina","BOARD_FR":"OCDSB","FULL_BOARD_FR":"Ottawa-Carleton District School Board"},"geometry":{"type":"Point","coordinates":[-75.79029508828653,45.3667271274058]}},{"type":"Feature","properties":{"OBJECTID":33,"BOARD":"CÉPEO","CATEGORY":"Elementary","NAME":"Marie-Curie Public Elementary School","NUM":"837","STREET":"ch. Quinlan Rd.","PHONE":"613-260-1150","FULL_BOARD":"Conseil des écoles publiques de l'Est de l'Ontario","CATEGORY_FR":"Élémentaire","NAME_FR":"École élémentaire publique Marie-Curie","BOARD_FR":"CÉPEO","FULL_BOARD_FR":"Conseil des écoles publiques de l'Est de l'Ontario"},"geometry":{"type":"Point","coordinates":[-75.6308967271051,45.398785889139354]}},{"type":"Feature","properties":{"OBJECTID":34,"BOARD":"CECCE","CATEGORY":"Elementary","NAME":"Catholic Elementary School Horizon-Jeunesse","NUM":"235","STREET":"av. McArthur Ave","PHONE":"613-741-8515","FULL_BOARD":"Conseil des écoles catholiques du Centre-Est","CATEGORY_FR":"Élémentaire","NAME_FR":"École élémentaire catholique Horizon-Jeunesse","BOARD_FR":"CECCE","FULL_BOARD_FR":"Conseil des écoles catholiques du Centre-Est"},"geometry":{"type":"Point","coordinates":[-75.65983153786507,45.43253623990961]}},{"type":"Feature","properties":{"OBJECTID":35,"BOARD":"OCSB","CATEGORY":"Elementary","NAME":"St. John Paul II School","NUM":"1500","STREET":"prom. Beaverpond Dr","PHONE":"613-744-3591","FULL_BOARD":"Ottawa Catholic School Board","CATEGORY_FR":"Élémentaire","NAME_FR":"École St. John-Paul II","BOARD_FR":"OCSB","FULL_BOARD_FR":"Ottawa Catholic School Board"},"geometry":{"type":"Point","coordinates":[-75.60162529874354,45.422558438642696]}},{"type":"Feature","properties":{"OBJECTID":36,"BOARD":"CECCE","CATEGORY":"Elementary","NAME":"Terre-des-Jeunes Catholic Elementary School","NUM":"1303","STREET":"rue Fellows Road","PHONE":"613-820-2121","FULL_BOARD":"Conseil des écoles catholiques du Centre-Est","CATEGORY_FR":"Élémentaire","NAME_FR":"École élémentaire catholique Terre-des-Jeunes","BOARD_FR":"CECCE","FULL_BOARD_FR":"Conseil des écoles catholiques du Centre-Est"},"geometry":{"type":"Point","coordinates":[-75.76779278898432,45.35202550603809]}},{"type":"Feature","properties":{"OBJECTID":37,"BOARD":"OCDSB","CATEGORY":"Elementary","NAME":"Richmond Public School","NUM":"3499","STREET":"rue McBean St","PHONE":"613-838-2371","FULL_BOARD":"Ottawa-Carleton District School Board","CATEGORY_FR":"Élémentaire","NAME_FR":"École publique Richmond","BOARD_FR":"OCDSB","FULL_BOARD_FR":"Ottawa-Carleton District School Board"},"geometry":{"type":"Point","coordinates":[-75.8355323361765,45.192065714655854]}},{"type":"Feature","properties":{"OBJECTID":38,"BOARD":"CECCE","CATEGORY":"Elementary","NAME":"Alain-Fortin Catholic Elementary School","NUM":"676","STREET":"prom. Lakeridge Dr","PHONE":"613-749-7454","FULL_BOARD":"Conseil des écoles catholiques du Centre-Est","CATEGORY_FR":"Élémentaire","NAME_FR":"École élémentaire catholique Alain-Fortin","BOARD_FR":"CECCE","FULL_BOARD_FR":"Conseil des écoles catholiques du Centre-Est"},"geometry":{"type":"Point","coordinates":[-75.47350998939054,45.4474421819973]}},{"type":"Feature","properties":{"OBJECTID":39,"BOARD":"CÉPEO","CATEGORY":"Elementary","NAME":"Le Prélude Public Elementary School","NUM":"6025","STREET":"prom. Longleaf Dr","PHONE":"613-834-8411","FULL_BOARD":"Conseil des écoles publiques de l'Est de l'Ontario","CATEGORY_FR":"Élémentaire","NAME_FR":"École élémentaire publique Le Prélude","BOARD_FR":"CÉPEO","FULL_BOARD_FR":"Conseil des écoles publiques de l'Est de l'Ontario"},"geometry":{"type":"Point","coordinates":[-75.52947096401957,45.43752290362615]}},{"type":"Feature","properties":{"OBJECTID":40,"BOARD":"CECCE","CATEGORY":"Elementary","NAME":"Sainte-Marie Catholic Elementary School","NUM":"2599","STREET":"ch. Innes Rd","PHONE":"613-745-2722","FULL_BOARD":"Conseil des écoles catholiques du Centre-Est","CATEGORY_FR":"Élémentaire","NAME_FR":"École élémentaire catholique Sainte-Marie","BOARD_FR":"CECCE","FULL_BOARD_FR":"Conseil des écoles catholiques du Centre-Est"},"geometry":{"type":"Point","coordinates":[-75.56601694865361,45.431631587448955]}},{"type":"Feature","properties":{"OBJECTID":41,"BOARD":"OCSB","CATEGORY":"Elementary","NAME":"Good Shepherd Catholic School","NUM":"101","STREET":"ch. Bearbrook Rd","PHONE":"613-824-4531","FULL_BOARD":"Ottawa Catholic School Board","CATEGORY_FR":"Élémentaire","NAME_FR":"École catholique Good Shepherd","BOARD_FR":"OCSB","FULL_BOARD_FR":"Ottawa Catholic School Board"},"geometry":{"type":"Point","coordinates":[-75.56444900759713,45.433007726653166]}},{"type":"Feature","properties":{"OBJECTID":42,"BOARD":"OCDSB","CATEGORY":"Elementary","NAME":"Glen Ogilvie Public School","NUM":"46","STREET":"prom. Centre Park Dr","PHONE":"613-824-4014","FULL_BOARD":"Ottawa-Carleton District School Board","CATEGORY_FR":"Élémentaire","NAME_FR":"École publique Glen Ogilvie","BOARD_FR":"OCDSB","FULL_BOARD_FR":"Ottawa-Carleton District School Board"},"geometry":{"type":"Point","coordinates":[-75.57070673834164,45.43470201803134]}},{"type":"Feature","properties":{"OBJECTID":43,"BOARD":"OCSB","CATEGORY":"Elementary","NAME":"St. Leonard School","NUM":"5344","STREET":"ch. Long Island Rd","PHONE":"613-692-3521","FULL_BOARD":"Ottawa Catholic School Board","CATEGORY_FR":"Élémentaire","NAME_FR":"École St. Leonard","BOARD_FR":"OCSB","FULL_BOARD_FR":"Ottawa Catholic School Board"},"geometry":{"type":"Point","coordinates":[-75.69157689417973,45.23720369895514]}},{"type":"Feature","properties":{"OBJECTID":44,"BOARD":"OCDSB","CATEGORY":"Elementary","NAME":"Manotick  Public School","NUM":"1075","STREET":"rue Bridge St","PHONE":"613-692-3311","FULL_BOARD":"Ottawa-Carleton District School Board","CATEGORY_FR":"Élémentaire","NAME_FR":"École publique Manotick","BOARD_FR":"OCDSB","FULL_BOARD_FR":"Ottawa-Carleton District School Board"},"geometry":{"type":"Point","coordinates":[-75.68314768835681,45.22989101678472]}},{"type":"Feature","properties":{"OBJECTID":45,"BOARD":"OCDSB","CATEGORY":"Elementary","NAME":"North Gower/Marlborough Public School","NUM":"2403","STREET":"rue Church St, Box 130","PHONE":"613-489-3375","FULL_BOARD":"Ottawa-Carleton District School Board","CATEGORY_FR":"Élémentaire","NAME_FR":"École publique North Gower/Marlborough","BOARD_FR":"OCDSB","FULL_BOARD_FR":"Ottawa-Carleton District School Board"},"geometry":{"type":"Point","coordinates":[-75.71937868232973,45.126244709298994]}},{"type":"Feature","properties":{"OBJECTID":46,"BOARD":"OCSB","CATEGORY":"Elementary","NAME":"St. Philip School","NUM":"79","STREET":"rue Maitland St. S","PHONE":"613-838-2466","FULL_BOARD":"Ottawa Catholic School Board","CATEGORY_FR":"Élémentaire","NAME_FR":"École St. Philip","BOARD_FR":"OCSB","FULL_BOARD_FR":"Ottawa Catholic School Board"},"geometry":{"type":"Point","coordinates":[-75.83591522420174,45.18539081032105]}},{"type":"Feature","properties":{"OBJECTID":47,"BOARD":"PRIVATE","CATEGORY":"Elementary","NAME":"Orléans Montessori","NUM":"1212","STREET":"av. Arbuste Ave","PHONE":"613-833-1442","FULL_BOARD":" ","CATEGORY_FR":"Élémentaire","NAME_FR":"Montessori Orléans","BOARD_FR":"PRIVATE","FULL_BOARD_FR":" "},"geometry":{"type":"Point","coordinates":[-75.45385584540902,45.500963289893306]}},{"type":"Feature","properties":{"OBJECTID":48,"BOARD":"OCDSB","CATEGORY":"Alternate Program","NAME":"Urban Aboriginal Alternate Program","NUM":"440","STREET":"rue Albert St","PHONE":"613-746-6328","FULL_BOARD":"Ottawa-Carleton District School Board","CATEGORY_FR":"Éducation Alternative","NAME_FR":"Programme alternatif autochtone urbain (Ottawa)","BOARD_FR":"OCDSB","FULL_BOARD_FR":"Ottawa-Carleton District School Board"},"geometry":{"type":"Point","coordinates":[-75.70696958137037,45.416712010572596]}},{"type":"Feature","properties":{"OBJECTID":49,"BOARD":"OCDSB","CATEGORY":"Alternate Program","NAME":"Richard Pfaff Secondary Alternate Program","NUM":"160","STREET":"rue Percy St","PHONE":"613-594-8020","FULL_BOARD":"Ottawa-Carleton District School Board","CATEGORY_FR":"Éducation Alternative","NAME_FR":"Programme secondaire alternatif Richard Pfaff","BOARD_FR":"OCDSB","FULL_BOARD_FR":"Ottawa-Carleton District School Board"},"geometry":{"type":"Point","coordinates":[-75.70256961693906,45.409567571249525]}},{"type":"Feature","properties":{"OBJECTID":50,"BOARD":"OCDSB","CATEGORY":"Alternate Program","NAME":"Elizabeth Wyn Wood Alternate Program (Nepean)","NUM":"20","STREET":"av. Rossland Ave","PHONE":"613-225-8826","FULL_BOARD":"Ottawa-Carleton District School Board","CATEGORY_FR":"Éducation Alternative","NAME_FR":"Programme alternatif Elizabeth Wyn Wood","BOARD_FR":"OCDSB","FULL_BOARD_FR":"Ottawa-Carleton District School Board"},"geometry":{"type":"Point","coordinates":[-75.73708930412607,45.35321105654758]}},{"type":"Feature","properties":{"OBJECTID":51,"BOARD":"OCDSB","CATEGORY":"Alternate Program","NAME":"First Place Alternate Program","NUM":"160","STREET":"rue Percy St","PHONE":"613-239-2544","FULL_BOARD":"Ottawa-Carleton District School Board","CATEGORY_FR":"Éducation Alternative","NAME_FR":"Programme alternatif First Place","BOARD_FR":"OCDSB","FULL_BOARD_FR":"Ottawa-Carleton District School Board"},"geometry":{"type":"Point","coordinates":[-75.70257053681392,45.40961234787058]}},{"type":"Feature","properties":{"OBJECTID":52,"BOARD":"OCDSB","CATEGORY":"Alternate Program","NAME":"Norman Johnston Secondary Alternate Program","NUM":"2401","STREET":"crois. Cleroux Cr","PHONE":"613-841-7510","FULL_BOARD":"Ottawa-Carleton District School Board","CATEGORY_FR":"Éducation Alternative","NAME_FR":"Programme secondaire alternatif Norman Johnston","BOARD_FR":"OCDSB","FULL_BOARD_FR":"Ottawa-Carleton District School Board"},"geometry":{"type":"Point","coordinates":[-75.54886069159214,45.43698739489771]}},{"type":"Feature","properties":{"OBJECTID":53,"BOARD":"OCDSB","CATEGORY":"Alternate Program","NAME":"Frederick Banting Secondary Alternate Program","NUM":"1453","STREET":"rue Stittsville Main St","PHONE":"613-591-7678","FULL_BOARD":"Ottawa-Carleton District School Board","CATEGORY_FR":"Éducation Alternative","NAME_FR":"Programme alternatif Frederick Banting (Stittsville)","BOARD_FR":"OCDSB","FULL_BOARD_FR":"Ottawa-Carleton District School Board"},"geometry":{"type":"Point","coordinates":[-75.92241344236086,45.26067448496764]}},{"type":"Feature","properties":{"OBJECTID":54,"BOARD":"OCDSB","CATEGORY":"Alternate Program","NAME":"Reality Check","NUM":"160","STREET":"rue Percy St","PHONE":"613-594-8020","FULL_BOARD":"Ottawa-Carleton District School Board","CATEGORY_FR":"Éducation Alternative","NAME_FR":"Reality Check","BOARD_FR":"OCDSB","FULL_BOARD_FR":"Ottawa-Carleton District School Board"},"geometry":{"type":"Point","coordinates":[-75.70259475539399,45.409654010951854]}},{"type":"Feature","properties":{"OBJECTID":55,"BOARD":"OCDSB","CATEGORY":"Centre","NAME":"Family Reception Centre","NUM":"300","STREET":"rue Rochester St","PHONE":"613-239-2416","FULL_BOARD":"Ottawa-Carleton District School Board","CATEGORY_FR":"Centre","NAME_FR":"Centre d'accueil des familles","BOARD_FR":"OCDSB","FULL_BOARD_FR":"Ottawa-Carleton District School Board"},"geometry":{"type":"Point","coordinates":[-75.71043443103193,45.4043221002425]}},{"type":"Feature","properties":{"OBJECTID":56,"BOARD":"OCSB","CATEGORY":"Continuing Education","NAME":"Queen of Angels Adult School","NUM":"1461","STREET":"ch. Heron Rd","PHONE":"613-731-3237","FULL_BOARD":"Ottawa Catholic School Board","CATEGORY_FR":"Formation continue","NAME_FR":"École pour adultes Queen of Angels ","BOARD_FR":"OCSB","FULL_BOARD_FR":"Ottawa Catholic School Board"},"geometry":{"type":"Point","coordinates":[-75.65507669128583,45.3797956140895]}},{"type":"Feature","properties":{"OBJECTID":57,"BOARD":"OCSB","CATEGORY":"Continuing Education","NAME":"St. Joseph's Adult School","NUM":"330","STREET":"rue Lajoie St","PHONE":"613-741-6808","FULL_BOARD":"Ottawa Catholic School Board","CATEGORY_FR":"Formation continue","NAME_FR":"École pour adultes St. Joseph's","BOARD_FR":"OCSB","FULL_BOARD_FR":"Ottawa Catholic School Board"},"geometry":{"type":"Point","coordinates":[-75.65879073360722,45.43423059082938]}},{"type":"Feature","properties":{"OBJECTID":58,"BOARD":"OCDSB","CATEGORY":"Continuing Education","NAME":"Continuing Education","NUM":"440","STREET":"rue Albert St","PHONE":"613-239-2325","FULL_BOARD":"Ottawa-Carleton District School Board","CATEGORY_FR":"Formation continue","NAME_FR":"Éducation continue","BOARD_FR":"OCDSB","FULL_BOARD_FR":"Ottawa-Carleton District School Board"},"geometry":{"type":"Point","coordinates":[-75.70641944231059,45.416889136279266]}},{"type":"Feature","properties":{"OBJECTID":59,"BOARD":"OCSB","CATEGORY":"Continuing Education","NAME":"St. Patrick's Adult School","NUM":"290","STREET":"rue Nepean St","PHONE":"613-594-5773","FULL_BOARD":"Ottawa Catholic School Board","CATEGORY_FR":"Formation continue","NAME_FR":"École pour adultes St. Patrick's","BOARD_FR":"OCSB","FULL_BOARD_FR":"Ottawa Catholic School Board"},"geometry":{"type":"Point","coordinates":[-75.70122583878364,45.41570865347631]}},{"type":"Feature","properties":{"OBJECTID":60,"BOARD":"OCDSB","CATEGORY":"Elementary","NAME":"First Avenue Public School","NUM":"73","STREET":"av. First Ave","PHONE":"613-239-2261","FULL_BOARD":"Ottawa-Carleton District School Board","CATEGORY_FR":"Élémentaire","NAME_FR":"École publique de l'avenue First","BOARD_FR":"OCDSB","FULL_BOARD_FR":"Ottawa-Carleton District School Board"},"geometry":{"type":"Point","coordinates":[-75.68545458356598,45.40638650513402]}},{"type":"Feature","properties":{"OBJECTID":61,"BOARD":"OCSB","CATEGORY":"Elementary","NAME":"Corpus Christi School","NUM":"798","STREET":"rue Lyon St South","PHONE":"613-232-9743","FULL_BOARD":"Ottawa Catholic School Board","CATEGORY_FR":"Élémentaire","NAME_FR":"École Corpus Christi","BOARD_FR":"OCSB","FULL_BOARD_FR":"Ottawa Catholic School Board"},"geometry":{"type":"Point","coordinates":[-75.69092992930875,45.401470585597586]}},{"type":"Feature","properties":{"OBJECTID":62,"BOARD":"OCDSB","CATEGORY":"Elementary","NAME":"Mutchmor Public School","NUM":"185","STREET":"av. Fifth Ave","PHONE":"613-239-2267","FULL_BOARD":"Ottawa-Carleton District School Board","CATEGORY_FR":"Élémentaire","NAME_FR":"École publique Mutchmor","BOARD_FR":"OCDSB","FULL_BOARD_FR":"Ottawa-Carleton District School Board"},"geometry":{"type":"Point","coordinates":[-75.69069826996665,45.40090026779442]}},{"type":"Feature","properties":{"OBJECTID":63,"BOARD":"OCSB","CATEGORY":"Elementary","NAME":"St. Marguerite d'Youville School","NUM":"89","STREET":"prom. Lorry Greenberg Dr","PHONE":"613-737-1141","FULL_BOARD":"Ottawa Catholic School Board","CATEGORY_FR":"Élémentaire","NAME_FR":"École St. Margureite d'Youville","BOARD_FR":"OCSB","FULL_BOARD_FR":"Ottawa Catholic School Board"},"geometry":{"type":"Point","coordinates":[-75.62574293331829,45.36759199272675]}},{"type":"Feature","properties":{"OBJECTID":64,"BOARD":"OCDSB","CATEGORY":"Elementary","NAME":"Roberta Bondar Public School","NUM":"159","STREET":"prom. Lorry Greenberg Dr","PHONE":"613-736-7334","FULL_BOARD":"Ottawa-Carleton District School Board","CATEGORY_FR":"Élémentaire","NAME_FR":"École publique Roberta Bondar","BOARD_FR":"OCDSB","FULL_BOARD_FR":"Ottawa-Carleton District School Board"},"geometry":{"type":"Point","coordinates":[-75.62746411528413,45.365846827687186]}},{"type":"Feature","properties":{"OBJECTID":65,"BOARD":"OCSB","CATEGORY":"Elementary","NAME":"St. Luke School","NUM":"2485","STREET":"crois. Dwight Cr","PHONE":"613-731-3541","FULL_BOARD":"Ottawa Catholic School Board","CATEGORY_FR":"Élémentaire","NAME_FR":"École St. Luke","BOARD_FR":"OCSB","FULL_BOARD_FR":"Ottawa Catholic School Board"},"geometry":{"type":"Point","coordinates":[-75.61505045806965,45.39481747052758]}},{"type":"Feature","properties":{"OBJECTID":66,"BOARD":"CECCE","CATEGORY":"Elementary","NAME":"Saint Francis of Assisi Catholic Elementary School","NUM":"35","STREET":"av. Melrose Ave","PHONE":"613-729-1463","FULL_BOARD":"Conseil des écoles catholiques du Centre-Est","CATEGORY_FR":"Élémentaire","NAME_FR":"École élémentaire catholique Saint-François-d’Assise","BOARD_FR":"CECCE","FULL_BOARD_FR":"Conseil des écoles catholiques du Centre-Est"},"geometry":{"type":"Point","coordinates":[-75.72380506801017,45.40246206675975]}},{"type":"Feature","properties":{"OBJECTID":67,"BOARD":"OCDSB","CATEGORY":"Elementary","NAME":"Connaught Public School","NUM":"1149","STREET":"av. Gladstone Ave","PHONE":"613-728-4671","FULL_BOARD":"Ottawa-Carleton District School Board","CATEGORY_FR":"Élémentaire","NAME_FR":"École publique Connaught","BOARD_FR":"OCDSB","FULL_BOARD_FR":"Ottawa-Carleton District School Board"},"geometry":{"type":"Point","coordinates":[-75.72634210710358,45.40067821492361]}},{"type":"Feature","properties":{"OBJECTID":68,"BOARD":"OCSB","CATEGORY":"Elementary","NAME":"Our Lady Of Fatima School","NUM":"2135","STREET":"ch. Knightsbridge Rd","PHONE":"613-722-4075","FULL_BOARD":"Ottawa Catholic School Board","CATEGORY_FR":"Élémentaire","NAME_FR":"École Our Lady of Fatima","BOARD_FR":"OCSB","FULL_BOARD_FR":"Ottawa Catholic School Board"},"geometry":{"type":"Point","coordinates":[-75.77344751391628,45.37745562432357]}},{"type":"Feature","properties":{"OBJECTID":69,"BOARD":"OCDSB","CATEGORY":"Elementary","NAME":"Woodroffe Avenue Public School","NUM":"235","STREET":"av. Woodroffe Ave","PHONE":"613-722-6585","FULL_BOARD":"Ottawa-Carleton District School Board","CATEGORY_FR":"Élémentaire","NAME_FR":"École publique de l'avenue Woodroffe","BOARD_FR":"OCDSB","FULL_BOARD_FR":"Ottawa-Carleton District School Board"},"geometry":{"type":"Point","coordinates":[-75.77245252912779,45.37438081732176]}},{"type":"Feature","properties":{"OBJECTID":70,"BOARD":"OCDSB","CATEGORY":"Elementary","NAME":"Churchill Alternative School","NUM":"345","STREET":"av. Ravenhill Ave","PHONE":"613-722-4474","FULL_BOARD":"Ottawa-Carleton District School Board","CATEGORY_FR":"Élémentaire","NAME_FR":"École Alternative Churchill","BOARD_FR":"OCDSB","FULL_BOARD_FR":"Ottawa-Carleton District School Board"},"geometry":{"type":"Point","coordinates":[-75.75387078584761,45.39032342779118]}},{"type":"Feature","properties":{"OBJECTID":71,"BOARD":"OCDSB","CATEGORY":"Elementary","NAME":"Charles H. Hulse Public School","NUM":"2605","STREET":"prom. Alta Vista Dr","PHONE":"613-521-8535","FULL_BOARD":"Ottawa-Carleton District School Board","CATEGORY_FR":"Élémentaire","NAME_FR":"École publique Charles H. Hulse","BOARD_FR":"OCDSB","FULL_BOARD_FR":"Ottawa-Carleton District School Board"},"geometry":{"type":"Point","coordinates":[-75.66007970644546,45.37468147147397]}},{"type":"Feature","properties":{"OBJECTID":72,"BOARD":"OCSB","CATEGORY":"Elementary","NAME":"Prince Of Peace School","NUM":"1620","STREET":"ch. Heatherington Rd","PHONE":"613-731-4733","FULL_BOARD":"Ottawa Catholic School Board","CATEGORY_FR":"Élémentaire","NAME_FR":"École Prince-Of-Peace","BOARD_FR":"OCSB","FULL_BOARD_FR":"Ottawa Catholic School Board"},"geometry":{"type":"Point","coordinates":[-75.64551294649674,45.373745644098044]}},{"type":"Feature","properties":{"OBJECTID":73,"BOARD":"CECCE","CATEGORY":"Elementary","NAME":"Marius-Barbeau Catholic Elementary School","NUM":"1345","STREET":"av. Nottinghill Ave","PHONE":"613-737-4404","FULL_BOARD":"Conseil des écoles catholiques du Centre-Est","CATEGORY_FR":"Élémentaire","NAME_FR":"École élémentaire catholique Marius-Barbeau","BOARD_FR":"CECCE","FULL_BOARD_FR":"Conseil des écoles catholiques du Centre-Est"},"geometry":{"type":"Point","coordinates":[-75.65665284563894,45.37158783390305]}},{"type":"Feature","properties":{"OBJECTID":74,"BOARD":"OCDSB","CATEGORY":"Elementary","NAME":"Riverview Alternative","NUM":"260","STREET":"crois. Knox Cr","PHONE":"613-733-6898","FULL_BOARD":"Ottawa-Carleton District School Board","CATEGORY_FR":"Élémentaire","NAME_FR":"École alternative Riverview","BOARD_FR":"OCDSB","FULL_BOARD_FR":"Ottawa-Carleton District School Board"},"geometry":{"type":"Point","coordinates":[-75.65480410290276,45.40575909831549]}},{"type":"Feature","properties":{"OBJECTID":75,"BOARD":"OCDSB","CATEGORY":"Elementary","NAME":"Vincent Massey Public School","NUM":"745","STREET":"ch. Smyth Rd","PHONE":"613-733-5955","FULL_BOARD":"Ottawa-Carleton District School Board","CATEGORY_FR":"Élémentaire","NAME_FR":"École publique Vincent-Massey","BOARD_FR":"OCDSB","FULL_BOARD_FR":"Ottawa-Carleton District School Board"},"geometry":{"type":"Point","coordinates":[-75.63665354467076,45.40056635872666]}},{"type":"Feature","properties":{"OBJECTID":76,"BOARD":"PRIVATE","CATEGORY":"Elementary","NAME":"Lycée Claudel (École)","NUM":"1635","STREET":"prom. Riverside Dr","PHONE":"613-733-8522","FULL_BOARD":" ","CATEGORY_FR":"Élémentaire","NAME_FR":"Lycée Claudel ","BOARD_FR":"PRIVATE","FULL_BOARD_FR":" "},"geometry":{"type":"Point","coordinates":[-75.66367102991588,45.405671378655825]}},{"type":"Feature","properties":{"OBJECTID":77,"BOARD":"OCSB","CATEGORY":"Elementary","NAME":"Our Lady Of Mount Carmel School","NUM":"675","STREET":"ch. Gardenvale Rd","PHONE":"613-745-4884","FULL_BOARD":"Ottawa Catholic School Board","CATEGORY_FR":"Élémentaire","NAME_FR":"École Our-Lady-Of-Mount-Carmel","BOARD_FR":"OCSB","FULL_BOARD_FR":"Ottawa Catholic School Board"},"geometry":{"type":"Point","coordinates":[-75.63582777104078,45.43467296943766]}},{"type":"Feature","properties":{"OBJECTID":78,"BOARD":"OCSB","CATEGORY":"Elementary","NAME":"Holy Cross School","NUM":"2820","STREET":"prom. Springland Dr","PHONE":"613-733-5887","FULL_BOARD":"Ottawa Catholic School Board","CATEGORY_FR":"Élémentaire","NAME_FR":"École Holy Cross","BOARD_FR":"OCSB","FULL_BOARD_FR":"Ottawa Catholic School Board"},"geometry":{"type":"Point","coordinates":[-75.68501237618929,45.363298889513956]}},{"type":"Feature","properties":{"OBJECTID":79,"BOARD":"CECCE","CATEGORY":"Elementary","NAME":"Catholic elementary school -Star Eastern Townships ","NUM":"6220","STREET":"prom. Beauséjour Dr","PHONE":"613-744-5713","FULL_BOARD":"Conseil des écoles catholiques du Centre-Est","CATEGORY_FR":"Élémentaire","NAME_FR":"École élémentaire catholique l'Étoile-de-l'Est","BOARD_FR":"CECCE","FULL_BOARD_FR":"Conseil des écoles catholiques du Centre-Est"},"geometry":{"type":"Point","coordinates":[-75.53268240343107,45.45660944768036]}},{"type":"Feature","properties":{"OBJECTID":80,"BOARD":"OCSB","CATEGORY":"Elementary","NAME":"Chapel Hill Catholic School","NUM":"1534","STREET":"prom. Forest Valley Dr","PHONE":"613-837-3773","FULL_BOARD":"Ottawa Catholic School Board","CATEGORY_FR":"Élémentaire","NAME_FR":"École catholique Chapel Hill","BOARD_FR":"OCSB","FULL_BOARD_FR":"Ottawa Catholic School Board"},"geometry":{"type":"Point","coordinates":[-75.54046878651477,45.451926866171284]}},{"type":"Feature","properties":{"OBJECTID":81,"BOARD":"OCSB","CATEGORY":"Elementary","NAME":"Guardian Angels School","NUM":"4","STREET":"prom. Baywood Dr","PHONE":"613-836-7423","FULL_BOARD":"Ottawa Catholic School Board","CATEGORY_FR":"Élémentaire","NAME_FR":"École Guardian Angels","BOARD_FR":"OCSB","FULL_BOARD_FR":"Ottawa Catholic School Board"},"geometry":{"type":"Point","coordinates":[-75.90621462500059,45.24889718583784]}},{"type":"Feature","properties":{"OBJECTID":82,"BOARD":"OCDSB","CATEGORY":"Elementary","NAME":"Stittsville Public School","NUM":"40","STREET":"prom. Granite Ridge Dr","PHONE":"613-836-2818","FULL_BOARD":"Ottawa-Carleton District School Board","CATEGORY_FR":"Élémentaire","NAME_FR":"École publique Stittsville","BOARD_FR":"OCDSB","FULL_BOARD_FR":"Ottawa-Carleton District School Board"},"geometry":{"type":"Point","coordinates":[-75.90852066501361,45.271015266885264]}},{"type":"Feature","properties":{"OBJECTID":83,"BOARD":"CECCE","CATEGORY":"Elementary","NAME":"Saint-Jean-Paul II Catholic Elementary School","NUM":"5473","STREET":"rue Abbott St Est / East","PHONE":"613-521-7858","FULL_BOARD":"Conseil des écoles catholiques du Centre-Est","CATEGORY_FR":"Élémentaire","NAME_FR":"École élémentaire catholique Saint-Jean-Paul II","BOARD_FR":"CECCE","FULL_BOARD_FR":"Conseil des écoles catholiques du Centre-Est"},"geometry":{"type":"Point","coordinates":[-75.90315211458511,45.27043313412882]}},{"type":"Feature","properties":{"OBJECTID":84,"BOARD":"OCDSB","CATEGORY":"Elementary","NAME":"Queen Elizabeth Public School","NUM":"689","STREET":"boul. St. Laurent Blvd","PHONE":"613-746-3246","FULL_BOARD":"Ottawa-Carleton District School Board","CATEGORY_FR":"Élémentaire","NAME_FR":"École publique Queen Elizabeth","BOARD_FR":"OCDSB","FULL_BOARD_FR":"Ottawa-Carleton District School Board"},"geometry":{"type":"Point","coordinates":[-75.64438888727665,45.43821974815197]}},{"type":"Feature","properties":{"OBJECTID":85,"BOARD":"OCSB","CATEGORY":"Elementary","NAME":"St. Monica School","NUM":"2000","STREET":"ch. Merivale Rd","PHONE":"613-226-5174","FULL_BOARD":"Ottawa Catholic School Board","CATEGORY_FR":"Élémentaire","NAME_FR":"École St. Monica","BOARD_FR":"OCSB","FULL_BOARD_FR":"Ottawa Catholic School Board"},"geometry":{"type":"Point","coordinates":[-75.71810986858478,45.322622941873085]}},{"type":"Feature","properties":{"OBJECTID":86,"BOARD":"OCSB","CATEGORY":"Elementary","NAME":"Thomas D'Arcy McGee Catholic School","NUM":"635","STREET":"prom. La Verendrye Dr","PHONE":"613-749-2251","FULL_BOARD":"Ottawa Catholic School Board","CATEGORY_FR":"Élémentaire","NAME_FR":"École catholique Thomas D'Arcy McGee","BOARD_FR":"OCSB","FULL_BOARD_FR":"Ottawa Catholic School Board"},"geometry":{"type":"Point","coordinates":[-75.60434690300028,45.45414598584632]}},{"type":"Feature","properties":{"OBJECTID":87,"BOARD":"OCDSB","CATEGORY":"Elementary","NAME":"Le Phare Elementary School","NUM":"1965","STREET":"prom. Naskapi Dr","PHONE":"613-744-2597","FULL_BOARD":"Ottawa-Carleton District School Board","CATEGORY_FR":"Élémentaire","NAME_FR":"École élémentaire Le Phare","BOARD_FR":"OCDSB","FULL_BOARD_FR":"Ottawa-Carleton District School Board"},"geometry":{"type":"Point","coordinates":[-75.60273015467779,45.449661137188635]}},{"type":"Feature","properties":{"OBJECTID":88,"BOARD":"OCDSB","CATEGORY":"Elementary","NAME":"Robert Hopkins Public School","NUM":"2011","STREET":"av. Glenfern Ave","PHONE":"613-745-2119","FULL_BOARD":"Ottawa-Carleton District School Board","CATEGORY_FR":"Élémentaire","NAME_FR":"École publique Robert Hopkins","BOARD_FR":"OCDSB","FULL_BOARD_FR":"Ottawa-Carleton District School Board"},"geometry":{"type":"Point","coordinates":[-75.60454371130261,45.45706297152065]}},{"type":"Feature","properties":{"OBJECTID":89,"BOARD":"CÉPEO","CATEGORY":"Elementary","NAME":"Séraphin-Marion Public Elementary School","NUM":"2147","STREET":"av. Loyola Ave","PHONE":"613-748-7636","FULL_BOARD":"Conseil des écoles publiques de l'Est de l'Ontario","CATEGORY_FR":"Élémentaire","NAME_FR":"École élémentaire publique Séraphin-Marion","BOARD_FR":"CÉPEO","FULL_BOARD_FR":"Conseil des écoles publiques de l'Est de l'Ontario"},"geometry":{"type":"Point","coordinates":[-75.59265623867252,45.45250592962857]}},{"type":"Feature","properties":{"OBJECTID":90,"BOARD":"OCSB","CATEGORY":"Elementary","NAME":"Divine Infant School","NUM":"8100","STREET":"boul. Jeanne D'arc Blvd","PHONE":"613-824-1060","FULL_BOARD":"Ottawa Catholic School Board","CATEGORY_FR":"Élémentaire","NAME_FR":"École Divine Infant","BOARD_FR":"OCSB","FULL_BOARD_FR":"Ottawa Catholic School Board"},"geometry":{"type":"Point","coordinates":[-75.51339227387065,45.48656479476371]}},{"type":"Feature","properties":{"OBJECTID":91,"BOARD":"OCSB","CATEGORY":"Elementary","NAME":"St. Michael, Corkery School","NUM":"1572","STREET":"ch. Corkery Rd","PHONE":"613-256-3672","FULL_BOARD":"Ottawa Catholic School Board","CATEGORY_FR":"Élémentaire","NAME_FR":"École St. Michael Corkery","BOARD_FR":"OCSB","FULL_BOARD_FR":"Ottawa Catholic School Board"},"geometry":{"type":"Point","coordinates":[-76.10092765185274,45.28427058892422]}},{"type":"Feature","properties":{"OBJECTID":92,"BOARD":"OCDSB","CATEGORY":"Elementary","NAME":"Huntley Centennial Public School","NUM":"118","STREET":"prom. Langstaff Dr, Box 100","PHONE":"613-839-2020","FULL_BOARD":"Ottawa-Carleton District School Board","CATEGORY_FR":"Élémentaire","NAME_FR":"École publique Huntley Centennial","BOARD_FR":"OCDSB","FULL_BOARD_FR":"Ottawa-Carleton District School Board"},"geometry":{"type":"Point","coordinates":[-76.03047741493455,45.346070060279196]}},{"type":"Feature","properties":{"OBJECTID":93,"BOARD":"OCSB","CATEGORY":"Elementary","NAME":"St. Isidore School","NUM":"1105","STREET":"ch. March Rd","PHONE":"613-592-1798","FULL_BOARD":"Ottawa Catholic School Board","CATEGORY_FR":"Élémentaire","NAME_FR":"École St. Isidore","BOARD_FR":"OCSB","FULL_BOARD_FR":"Ottawa Catholic School Board"},"geometry":{"type":"Point","coordinates":[-75.94923721399978,45.366318302600625]}},{"type":"Feature","properties":{"OBJECTID":94,"BOARD":"OCSB","CATEGORY":"Elementary","NAME":"Holy Spirit School","NUM":"1383","STREET":"rue Stittsville Main St","PHONE":"613-831-1853","FULL_BOARD":"Ottawa Catholic School Board","CATEGORY_FR":"Élémentaire","NAME_FR":"École Holy Spirit","BOARD_FR":"OCSB","FULL_BOARD_FR":"Ottawa Catholic School Board"},"geometry":{"type":"Point","coordinates":[-75.92592868481492,45.26387185670019]}},{"type":"Feature","properties":{"OBJECTID":95,"BOARD":"CÉPEO","CATEGORY":"Elementary","NAME":"Julie-Payette Public Elementary School","NUM":"1385","STREET":"terr. Halton Terrasse","PHONE":"613-270-0060","FULL_BOARD":"Conseil des écoles publiques de l'Est de l'Ontario","CATEGORY_FR":"Élémentaire","NAME_FR":"École élémentaire publique Julie-Payette","BOARD_FR":"CÉPEO","FULL_BOARD_FR":"Conseil des écoles publiques de l'Est de l'Ontario"},"geometry":{"type":"Point","coordinates":[-75.93682189130875,45.3488847901063]}},{"type":"Feature","properties":{"OBJECTID":96,"BOARD":"OCDSB","CATEGORY":"Elementary","NAME":"Jack Donohue Public School","NUM":"101","STREET":"rue Penrith St","PHONE":"613-271-9776","FULL_BOARD":"Ottawa-Carleton District School Board","CATEGORY_FR":"Élémentaire","NAME_FR":"École publique Jack Donohue","BOARD_FR":"OCDSB","FULL_BOARD_FR":"Ottawa-Carleton District School Board"},"geometry":{"type":"Point","coordinates":[-75.94180628439253,45.353649114333564]}},{"type":"Feature","properties":{"OBJECTID":97,"BOARD":"OCDSB","CATEGORY":"Elementary","NAME":"South March Public School","NUM":"1032","STREET":"ch. Klondike Rd","PHONE":"613-595-0543","FULL_BOARD":"Ottawa-Carleton District School Board","CATEGORY_FR":"Élémentaire","NAME_FR":"École publique South March","BOARD_FR":"OCDSB","FULL_BOARD_FR":"Ottawa-Carleton District School Board"},"geometry":{"type":"Point","coordinates":[-75.92752287015242,45.35756147133854]}},{"type":"Feature","properties":{"OBJECTID":98,"BOARD":"PRIVATE","CATEGORY":"Elementary","NAME":"March Academy","NUM":"325","STREET":"ch. Sandhill Rd","PHONE":"613-592-3398","FULL_BOARD":" ","CATEGORY_FR":"Élémentaire","NAME_FR":"Académie March","BOARD_FR":"PRIVATE","FULL_BOARD_FR":" "},"geometry":{"type":"Point","coordinates":[-75.92708708303503,45.354770027766094]}},{"type":"Feature","properties":{"OBJECTID":99,"BOARD":"CECCE","CATEGORY":"Elementary","NAME":"George-Étienne-Cartier Catholic Elementary School","NUM":"880","STREET":"prom. Thorndale Dr","PHONE":"613-731-6007","FULL_BOARD":"Conseil des écoles catholiques du Centre-Est","CATEGORY_FR":"Élémentaire","NAME_FR":"École élémentaire catholique George-Étienne-Cartier","BOARD_FR":"CECCE","FULL_BOARD_FR":"Conseil des écoles catholiques du Centre-Est"},"geometry":{"type":"Point","coordinates":[-75.67273871512363,45.363732621505264]}},{"type":"Feature","properties":{"OBJECTID":100,"BOARD":"OCDSB","CATEGORY":"Elementary","NAME":"Fielding Drive Public School","NUM":"777","STREET":"prom. Fielding Dr","PHONE":"613-731-4928","FULL_BOARD":"Ottawa-Carleton District School Board","CATEGORY_FR":"Élémentaire","NAME_FR":"École publique de la promenade Fielding","BOARD_FR":"OCDSB","FULL_BOARD_FR":"Ottawa-Carleton District School Board"},"geometry":{"type":"Point","coordinates":[-75.67789476008853,45.36204212119035]}},{"type":"Feature","properties":{"OBJECTID":101,"BOARD":"OCDSB","CATEGORY":"Elementary","NAME":"W.O. Mitchell Elementary School","NUM":"80","STREET":"prom. Steeple Chase Dr","PHONE":"613-271-1806","FULL_BOARD":"Ottawa-Carleton District School Board","CATEGORY_FR":"Élémentaire","NAME_FR":"École élémentaire W.O. Mitchell","BOARD_FR":"OCDSB","FULL_BOARD_FR":"Ottawa-Carleton District School Board"},"geometry":{"type":"Point","coordinates":[-75.85744800775039,45.29927264209729]}},{"type":"Feature","properties":{"OBJECTID":102,"BOARD":"CECCE","CATEGORY":"Elementary","NAME":"Élisabeth-Bruyère Catholic Elementary School","NUM":"100","STREET":"prom. Stonehaven Dr","PHONE":"613-521-0176","FULL_BOARD":"Conseil des écoles catholiques du Centre-Est","CATEGORY_FR":"Élémentaire","NAME_FR":"École élémentaire catholique Élisabeth-Bruyère","BOARD_FR":"CECCE","FULL_BOARD_FR":"Conseil des écoles catholiques du Centre-Est"},"geometry":{"type":"Point","coordinates":[-75.8466713989872,45.28726948835752]}},{"type":"Feature","properties":{"OBJECTID":103,"BOARD":"OCSB","CATEGORY":"Elementary","NAME":"St. Cecilia School","NUM":"3490","STREET":"ch. Cambrian Rd","PHONE":"613-692-6164","FULL_BOARD":"Ottawa Catholic School Board","CATEGORY_FR":"Élémentaire","NAME_FR":"École St. Cecilia","BOARD_FR":"OCSB","FULL_BOARD_FR":"Ottawa Catholic School Board"},"geometry":{"type":"Point","coordinates":[-75.73243560874614,45.25373212016472]}},{"type":"Feature","properties":{"OBJECTID":104,"BOARD":"CECCE","CATEGORY":"Elementary","NAME":"Catholic Elementary School St. Kateri","NUM":"2450","STREET":"ch. River Mist Road","PHONE":"613-741-6754","FULL_BOARD":"Conseil des écoles catholiques du Centre-Est","CATEGORY_FR":"Élémentaire","NAME_FR":"École élémentaire catholique Sainte-Kateri","BOARD_FR":"CECCE","FULL_BOARD_FR":"Conseil des écoles catholiques du Centre-Est"},"geometry":{"type":"Point","coordinates":[-75.73617995663196,45.245858643384445]}},{"type":"Feature","properties":{"OBJECTID":105,"BOARD":"OCSB","CATEGORY":"Special Education","NAME":"M.F. McHugh Education Centre","NUM":"437","STREET":"rue Donald St","PHONE":"613-747-6885","FULL_BOARD":"Ottawa Catholic School Board","CATEGORY_FR":"Éducation Spéciale","NAME_FR":"Centre éducatif M.F. McHugh","BOARD_FR":"OCSB","FULL_BOARD_FR":"Ottawa Catholic School Board"},"geometry":{"type":"Point","coordinates":[-75.64855361886765,45.42915938127089]}},{"type":"Feature","properties":{"OBJECTID":106,"BOARD":"OCSB","CATEGORY":"Virtual Secondary","NAME":"St. Nicholas Virtual Academy","NUM":"893","STREET":"av. Admiral Ave","PHONE":"613-723-7757","FULL_BOARD":"Ottawa Catholic School Board","CATEGORY_FR":"Secondaire Virtuelle","NAME_FR":"Académie virtuelle St. Nicholas","BOARD_FR":"OCSB","FULL_BOARD_FR":"Ottawa Catholic School Board"},"geometry":{"type":"Point","coordinates":[-75.72870454245182,45.38413750445218]}},{"type":"Feature","properties":{"OBJECTID":107,"BOARD":"OCSB","CATEGORY":"Elementary","NAME":"St. Michael, Fitzroy School","NUM":"159","STREET":"rue Kedey St","PHONE":"613-623-3114","FULL_BOARD":"Ottawa Catholic School Board","CATEGORY_FR":"Élémentaire","NAME_FR":"École St. Michael, Fitzroy","BOARD_FR":"OCSB","FULL_BOARD_FR":"Ottawa Catholic School Board"},"geometry":{"type":"Point","coordinates":[-76.21607739974196,45.47140571097299]}},{"type":"Feature","properties":{"OBJECTID":108,"BOARD":"OCDSB","CATEGORY":"Elementary","NAME":"Osgoode Public School","NUM":"5590","STREET":"rue Osgoode Main St, Box 70","PHONE":"613-826-2550","FULL_BOARD":"Ottawa-Carleton District School Board","CATEGORY_FR":"Élémentaire","NAME_FR":"École publique Osgoode ","BOARD_FR":"OCDSB","FULL_BOARD_FR":"Ottawa-Carleton District School Board"},"geometry":{"type":"Point","coordinates":[-75.60533251297043,45.146160546830565]}},{"type":"Feature","properties":{"OBJECTID":109,"BOARD":"OCSB","CATEGORY":"Elementary","NAME":"St. Catherine School","NUM":"2717","STREET":"ch. 8th Line Rd","PHONE":"613-821-1002","FULL_BOARD":"Ottawa Catholic School Board","CATEGORY_FR":"Élémentaire","NAME_FR":"École St. Catherine","BOARD_FR":"OCSB","FULL_BOARD_FR":"Ottawa Catholic School Board"},"geometry":{"type":"Point","coordinates":[-75.47039685082395,45.232850693930196]}},{"type":"Feature","properties":{"OBJECTID":110,"BOARD":"OCDSB","CATEGORY":"Elementary","NAME":"Castor Valley Elementary School","NUM":"2630","STREET":"ch. Grey’s Creek Rd","PHONE":"613-821-1272","FULL_BOARD":"Ottawa-Carleton District School Board","CATEGORY_FR":"Élémentaire","NAME_FR":"École élémentaire Castor Valley","BOARD_FR":"OCDSB","FULL_BOARD_FR":"Ottawa-Carleton District School Board"},"geometry":{"type":"Point","coordinates":[-75.51771852344804,45.216360084663336]}},{"type":"Feature","properties":{"OBJECTID":111,"BOARD":"OCDSB","CATEGORY":"Elementary","NAME":"Metcalfe Public School","NUM":"2701","STREET":"rue 8th Line Rd","PHONE":"613-821-2261","FULL_BOARD":"Ottawa-Carleton District School Board","CATEGORY_FR":"Élémentaire","NAME_FR":"École publique Metcalfe","BOARD_FR":"OCDSB","FULL_BOARD_FR":"Ottawa-Carleton District School Board"},"geometry":{"type":"Point","coordinates":[-75.47084839439142,45.23347658006851]}},{"type":"Feature","properties":{"OBJECTID":112,"BOARD":"CECCE","CATEGORY":"Elementary","NAME":"Sainte-Thérèse-d'Avila Catholic Elementary School","NUM":"9575","STREET":"ch. Marionville Rd","PHONE":"613-745-0282","FULL_BOARD":"Conseil des écoles catholiques du Centre-Est","CATEGORY_FR":"Élémentaire","NAME_FR":"École élémentaire catholique Sainte-Thérèse-d'Avila","BOARD_FR":"CECCE","FULL_BOARD_FR":"Conseil des écoles catholiques du Centre-Est"},"geometry":{"type":"Point","coordinates":[-75.35463730046875,45.18187334221733]}},{"type":"Feature","properties":{"OBJECTID":113,"BOARD":"OCDSB","CATEGORY":"Elementary","NAME":"Blossom Park Public School","NUM":"3810","STREET":"rue Sixth St","PHONE":"613-521-4299","FULL_BOARD":"Ottawa-Carleton District School Board","CATEGORY_FR":"Élémentaire","NAME_FR":"École publique Blossom Park","BOARD_FR":"OCDSB","FULL_BOARD_FR":"Ottawa-Carleton District School Board"},"geometry":{"type":"Point","coordinates":[-75.62421552424745,45.35041295145606]}},{"type":"Feature","properties":{"OBJECTID":114,"BOARD":"OCDSB","CATEGORY":"Elementary","NAME":"Sawmill Creek Elementary School","NUM":"3400","STREET":"av. D’Aoust Ave","PHONE":"613-521-5922","FULL_BOARD":"Ottawa-Carleton District School Board","CATEGORY_FR":"Élémentaire","NAME_FR":"École élémentaire Sawmill Creek","BOARD_FR":"OCDSB","FULL_BOARD_FR":"Ottawa-Carleton District School Board"},"geometry":{"type":"Point","coordinates":[-75.63352495597962,45.3495291952164]}},{"type":"Feature","properties":{"OBJECTID":115,"BOARD":"CECCE","CATEGORY":"Elementary","NAME":"Laurier-Carrière Catholic Elementary School","NUM":"14","STREET":"prom. Four Seasons Dr","PHONE":"613-224-3211","FULL_BOARD":"Conseil des écoles catholiques du Centre-Est","CATEGORY_FR":"Élémentaire","NAME_FR":"École élémentaire catholique Laurier-Carrière","BOARD_FR":"CECCE","FULL_BOARD_FR":"Conseil des écoles catholiques du Centre-Est"},"geometry":{"type":"Point","coordinates":[-75.71251999842309,45.35233360510117]}},{"type":"Feature","properties":{"OBJECTID":116,"BOARD":"OCSB","CATEGORY":"Elementary","NAME":"St. Rita School","NUM":"1","STREET":"av. Inverness Ave","PHONE":"613-224-6341","FULL_BOARD":"Ottawa Catholic School Board","CATEGORY_FR":"Élémentaire","NAME_FR":"École St. Rita","BOARD_FR":"OCSB","FULL_BOARD_FR":"Ottawa Catholic School Board"},"geometry":{"type":"Point","coordinates":[-75.71098322890698,45.360070702652635]}},{"type":"Feature","properties":{"OBJECTID":117,"BOARD":"OCSB","CATEGORY":"Elementary","NAME":"St. Daniel School","NUM":"1313","STREET":"rue Field St","PHONE":"613-225-4603","FULL_BOARD":"Ottawa Catholic School Board","CATEGORY_FR":"Élémentaire","NAME_FR":"École St. Daniel","BOARD_FR":"OCSB","FULL_BOARD_FR":"Ottawa Catholic School Board"},"geometry":{"type":"Point","coordinates":[-75.76307039494306,45.354471414067184]}},{"type":"Feature","properties":{"OBJECTID":118,"BOARD":"OCDSB","CATEGORY":"Elementary","NAME":"Carson Grove Elementary School","NUM":"1401","STREET":"ch. Matheson Rd","PHONE":"613-745-0195","FULL_BOARD":"Ottawa-Carleton District School Board","CATEGORY_FR":"Élémentaire","NAME_FR":"École élémentaire Carson Grove","BOARD_FR":"OCDSB","FULL_BOARD_FR":"Ottawa-Carleton District School Board"},"geometry":{"type":"Point","coordinates":[-75.62274324478558,45.43693088977177]}},{"type":"Feature","properties":{"OBJECTID":119,"BOARD":"OCDSB","CATEGORY":"Elementary","NAME":"D. Roy Kennedy Public School","NUM":"919","STREET":"av. Woodroffe Ave","PHONE":"613-728-1993","FULL_BOARD":"Ottawa-Carleton District School Board","CATEGORY_FR":"Élémentaire","NAME_FR":"École publique D. Roy Kennedy ","BOARD_FR":"OCDSB","FULL_BOARD_FR":"Ottawa-Carleton District School Board"},"geometry":{"type":"Point","coordinates":[-75.76964706803761,45.36517557461769]}},{"type":"Feature","properties":{"OBJECTID":120,"BOARD":"CECCE","CATEGORY":"Elementary","NAME":"Montfort Catholic Elementary School","NUM":"350","STREET":"rue Den Haag Rd","PHONE":"613-745-3310","FULL_BOARD":"Conseil des écoles catholiques du Centre-Est","CATEGORY_FR":"Élémentaire","NAME_FR":"École élémentaire catholique Montfort","BOARD_FR":"CECCE","FULL_BOARD_FR":"Conseil des écoles catholiques du Centre-Est"},"geometry":{"type":"Point","coordinates":[-75.63031082431722,45.44063097924817]}},{"type":"Feature","properties":{"OBJECTID":121,"BOARD":"OCDSB","CATEGORY":"Elementary","NAME":"Centennial Public School","NUM":"376","STREET":"rue Gloucester St","PHONE":"613-239-2277","FULL_BOARD":"Ottawa-Carleton District School Board","CATEGORY_FR":"Élémentaire","NAME_FR":"École publique Centennial","BOARD_FR":"OCDSB","FULL_BOARD_FR":"Ottawa-Carleton District School Board"},"geometry":{"type":"Point","coordinates":[-75.70456028720194,45.414988570054064]}},{"type":"Feature","properties":{"OBJECTID":122,"BOARD":"OCDSB","CATEGORY":"Elementary","NAME":"Elgin Street Public School","NUM":"310","STREET":"rue Elgin St","PHONE":"613-239-2231","FULL_BOARD":"Ottawa-Carleton District School Board","CATEGORY_FR":"Élémentaire","NAME_FR":"École publique de la rue Elgin","BOARD_FR":"OCDSB","FULL_BOARD_FR":"Ottawa-Carleton District School Board"},"geometry":{"type":"Point","coordinates":[-75.68993438127659,45.41562327926257]}},{"type":"Feature","properties":{"OBJECTID":123,"BOARD":"OCDSB","CATEGORY":"Secondary","NAME":"Merivale High School","NUM":"1755","STREET":"ch. Merivale Rd","PHONE":"613-224-1807","FULL_BOARD":"Ottawa-Carleton District School Board","CATEGORY_FR":"Secondaire","NAME_FR":"École secondaire Merivale","BOARD_FR":"OCDSB","FULL_BOARD_FR":"Ottawa-Carleton District School Board"},"geometry":{"type":"Point","coordinates":[-75.7276359865399,45.34351025992419]}},{"type":"Feature","properties":{"OBJECTID":124,"BOARD":"CECCE","CATEGORY":"Secondary","NAME":"Minto Professional and Technical Centre\r\n","NUM":"801","STREET":"prom Aviation Parkway, Building J","PHONE":"613-842-5319","FULL_BOARD":"Conseil des écoles catholiques du Centre-Est","CATEGORY_FR":"Secondaire","NAME_FR":"Centre professionnel et technique Minto","BOARD_FR":"CECCE","FULL_BOARD_FR":"Conseil des écoles catholiques du Centre-Est"},"geometry":{"type":"Point","coordinates":[-75.62737957752769,45.43974362559273]}},{"type":"Feature","properties":{"OBJECTID":125,"BOARD":"OCDSB","CATEGORY":"Secondary","NAME":"Sir Guy Carleton Secondary School","NUM":"55","STREET":"prom. Centrepointe Dr","PHONE":"613-723-5136","FULL_BOARD":"Ottawa-Carleton District School Board","CATEGORY_FR":"Secondaire","NAME_FR":"École secondaire Sir Guy Carleton","BOARD_FR":"OCDSB","FULL_BOARD_FR":"Ottawa-Carleton District School Board"},"geometry":{"type":"Point","coordinates":[-75.7657848477118,45.346928904547234]}},{"type":"Feature","properties":{"OBJECTID":126,"BOARD":"OCDSB","CATEGORY":"Secondary","NAME":"Lisgar Collegiate Institute","NUM":"29","STREET":"rue Lisgar St","PHONE":"613-239-2696","FULL_BOARD":"Ottawa-Carleton District School Board","CATEGORY_FR":"Secondaire","NAME_FR":"Institut collégial Lisgar","BOARD_FR":"OCDSB","FULL_BOARD_FR":"Ottawa-Carleton District School Board"},"geometry":{"type":"Point","coordinates":[-75.68798784254867,45.42089024130263]}},{"type":"Feature","properties":{"OBJECTID":127,"BOARD":"OCDSB","CATEGORY":"Secondary","NAME":"Colonel By Secondary School","NUM":"2381","STREET":"ch. Ogilvie Rd","PHONE":"613-745-9411","FULL_BOARD":"Ottawa-Carleton District School Board","CATEGORY_FR":"Secondaire","NAME_FR":"École secondaire Colonel By","BOARD_FR":"OCDSB","FULL_BOARD_FR":"Ottawa-Carleton District School Board"},"geometry":{"type":"Point","coordinates":[-75.6002535129142,45.45506765976251]}},{"type":"Feature","properties":{"OBJECTID":128,"BOARD":"OCSB","CATEGORY":"Secondary","NAME":"Sacred Heart High School","NUM":"5870","STREET":"rue Abbott St","PHONE":"613-831-6643","FULL_BOARD":"Ottawa Catholic School Board","CATEGORY_FR":"Secondaire","NAME_FR":"École secondaire Sacred Heart","BOARD_FR":"OCSB","FULL_BOARD_FR":"Ottawa Catholic School Board"},"geometry":{"type":"Point","coordinates":[-75.91011755068685,45.26368197161011]}},{"type":"Feature","properties":{"OBJECTID":129,"BOARD":"OCSB","CATEGORY":"Secondary","NAME":"All Saints High School","NUM":"5115","STREET":"av. Kanata Ave","PHONE":"613-271-4254","FULL_BOARD":"Ottawa Catholic School Board","CATEGORY_FR":"Secondaire","NAME_FR":"École secondaire All Saints","BOARD_FR":"OCSB","FULL_BOARD_FR":"Ottawa Catholic School Board"},"geometry":{"type":"Point","coordinates":[-75.92469733261395,45.32148444269577]}},{"type":"Feature","properties":{"OBJECTID":130,"BOARD":"OCDSB","CATEGORY":"Secondary","NAME":"Sir Wilfrid Laurier Secondary School","NUM":"1515","STREET":"ch. Tenth Line Rd","PHONE":"613-834-4500","FULL_BOARD":"Ottawa-Carleton District School Board","CATEGORY_FR":"Secondaire","NAME_FR":"École secondaire Sir Wilfrid Laurier","BOARD_FR":"OCDSB","FULL_BOARD_FR":"Ottawa-Carleton District School Board"},"geometry":{"type":"Point","coordinates":[-75.4938820247263,45.47319867542351]}},{"type":"Feature","properties":{"OBJECTID":131,"BOARD":"CECCE","CATEGORY":"Secondary","NAME":"Béatrice-Desloges Catholic High School","NUM":"1999","STREET":"av. Provence Ave","PHONE":"613-820-3391","FULL_BOARD":"Conseil des écoles catholiques du Centre-Est","CATEGORY_FR":"Secondaire","NAME_FR":"École secondaire catholique Béatrice-Desloges","BOARD_FR":"CECCE","FULL_BOARD_FR":"Conseil des écoles catholiques du Centre-Est"},"geometry":{"type":"Point","coordinates":[-75.45796211733625,45.46810898244472]}},{"type":"Feature","properties":{"OBJECTID":132,"BOARD":"OCDSB","CATEGORY":"Secondary","NAME":"South Carleton High School","NUM":"3673","STREET":"rue McBean St","PHONE":"613-838-2212","FULL_BOARD":"Ottawa-Carleton District School Board","CATEGORY_FR":"Secondaire","NAME_FR":"École secondaire South Carleton","BOARD_FR":"OCDSB","FULL_BOARD_FR":"Ottawa-Carleton District School Board"},"geometry":{"type":"Point","coordinates":[-75.82807512276234,45.186577925518236]}},{"type":"Feature","properties":{"OBJECTID":133,"BOARD":"PRIVATE","CATEGORY":"Elementary/Secondary","NAME":"Blue Sky School","NUM":"95 ","STREET":"cour Denzil Doyle Crt.","PHONE":"613-884-5437","FULL_BOARD":null,"CATEGORY_FR":null,"NAME_FR":"École Ciel bleu","BOARD_FR":"PRIVATE","FULL_BOARD_FR":null},"geometry":{"type":"Point","coordinates":[-75.87178214715968,45.289386655781705]}},{"type":"Feature","properties":{"OBJECTID":134,"BOARD":"OCDSB","CATEGORY":"Intermediate","NAME":"Emily Carr Middle School","NUM":"2681","STREET":"ch. Innes Rd","PHONE":"613-824-5455","FULL_BOARD":"Ottawa-Carleton District School Board","CATEGORY_FR":"Intermédiaire","NAME_FR":"École intermédiaire Emily Carr","BOARD_FR":"OCDSB","FULL_BOARD_FR":"Ottawa-Carleton District School Board"},"geometry":{"type":"Point","coordinates":[-75.56262035029238,45.4344560399776]}},{"type":"Feature","properties":{"OBJECTID":135,"BOARD":"PRIVATE","CATEGORY":"Intermediate","NAME":"MacDonald-Cartier Academy","NUM":"270","STREET":"rue Crichton St","PHONE":"613-744-8898","FULL_BOARD":" ","CATEGORY_FR":"Intermédiaire","NAME_FR":"Académie MacDonald-Cartier ","BOARD_FR":"PRIVATE","FULL_BOARD_FR":" "},"geometry":{"type":"Point","coordinates":[-75.68200820326668,45.43972770960773]}},{"type":"Feature","properties":{"OBJECTID":136,"BOARD":"OCDSB","CATEGORY":"Intermediate","NAME":"Fisher Park Public School / Summit Alternate School","NUM":"250","STREET":"av. Holland Ave","PHONE":"613-729-5054","FULL_BOARD":"Ottawa-Carleton District School Board","CATEGORY_FR":"Intermédiaire","NAME_FR":"Fisher Parc L'école publique / Sommet Alternative école","BOARD_FR":"OCDSB","FULL_BOARD_FR":"Ottawa-Carleton District School Board"},"geometry":{"type":"Point","coordinates":[-75.73075894998074,45.39525364552804]}},{"type":"Feature","properties":{"OBJECTID":137,"BOARD":"OCDSB","CATEGORY":"Intermediate","NAME":"Sir Winston Churchill Public School","NUM":"49","STREET":"av. Mulvagh Ave","PHONE":"613-224-2336","FULL_BOARD":"Ottawa-Carleton District School Board","CATEGORY_FR":"Intermédiaire","NAME_FR":"École publique Sir Winston Churchill ","BOARD_FR":"OCDSB","FULL_BOARD_FR":"Ottawa-Carleton District School Board"},"geometry":{"type":"Point","coordinates":[-75.72837094678285,45.35424134289887]}},{"type":"Feature","properties":{"OBJECTID":138,"BOARD":"OCSB","CATEGORY":"Intermediate","NAME":"Frank Ryan Catholic Intermediate School","NUM":"128","STREET":"prom. Chesterton Dr","PHONE":"613-224-8833","FULL_BOARD":"Ottawa Catholic School Board","CATEGORY_FR":"Intermédiaire","NAME_FR":"École catholique de l’intermédiaire Frank Ryan","BOARD_FR":"OCSB","FULL_BOARD_FR":"Ottawa Catholic School Board"},"geometry":{"type":"Point","coordinates":[-75.72226418959994,45.35172582044085]}},{"type":"Feature","properties":{"OBJECTID":139,"BOARD":"OCDSB","CATEGORY":"Intermediate","NAME":"Goulbourn Middle School","NUM":"2176","STREET":"prom. Huntley Dr, RR#3","PHONE":"613-836-1312","FULL_BOARD":"Ottawa-Carleton District School Board","CATEGORY_FR":"Intermédiaire","NAME_FR":"École intermédiaire Goulbourn","BOARD_FR":"OCDSB","FULL_BOARD_FR":"Ottawa-Carleton District School Board"},"geometry":{"type":"Point","coordinates":[-75.9016569873723,45.23018871944898]}},{"type":"Feature","properties":{"OBJECTID":140,"BOARD":"OCDSB","CATEGORY":"Intermediate","NAME":"Henry Munro Middle School","NUM":"2105","STREET":"av. Kender Ave","PHONE":"613-748-0060","FULL_BOARD":"Ottawa-Carleton District School Board","CATEGORY_FR":"Intermédiaire","NAME_FR":"École intermédiaire Henry Munro","BOARD_FR":"OCDSB","FULL_BOARD_FR":"Ottawa-Carleton District School Board"},"geometry":{"type":"Point","coordinates":[-75.59668041895586,45.45784699667787]}},{"type":"Feature","properties":{"OBJECTID":141,"BOARD":"CECCE","CATEGORY":"Secondary","NAME":"Pierre-Savard Catholic Secondary School","NUM":"1110","STREET":"prom Longfields Dr","PHONE":"613-820-7293","FULL_BOARD":"Conseil des écoles catholiques du Centre-Est","CATEGORY_FR":"Secondaire","NAME_FR":"École secondaire catholique Pierre-Savard","BOARD_FR":"CECCE","FULL_BOARD_FR":"Conseil des écoles catholiques du Centre-Est"},"geometry":{"type":"Point","coordinates":[-75.73700543561452,45.27327092324153]}},{"type":"Feature","properties":{"OBJECTID":142,"BOARD":"OCDSB","CATEGORY":"Elementary","NAME":"Kars on the Rideau Public School","NUM":"6680","STREET":"prom. Dorack Dr, Box10","PHONE":"613-489-2024","FULL_BOARD":"Ottawa-Carleton District School Board","CATEGORY_FR":"Élémentaire","NAME_FR":"École publique Kars on the Rideau","BOARD_FR":"OCDSB","FULL_BOARD_FR":"Ottawa-Carleton District School Board"},"geometry":{"type":"Point","coordinates":[-75.65049833671047,45.1524441894993]}},{"type":"Feature","properties":{"OBJECTID":143,"BOARD":"CECCE","CATEGORY":"Elementary","NAME":"Catholic Elementary School Voyageurs","NUM":"6030","STREET":"prom. Voyageur Dr","PHONE":"613-744-8345","FULL_BOARD":"Conseil des écoles catholiques du Centre-Est","CATEGORY_FR":"Élémentaire","NAME_FR":"École élémentaire catholique des Voyageurs","BOARD_FR":"CECCE","FULL_BOARD_FR":"Conseil des écoles catholiques du Centre-Est"},"geometry":{"type":"Point","coordinates":[-75.55262462185283,45.47351625167261]}},{"type":"Feature","properties":{"OBJECTID":144,"BOARD":"OCDSB","CATEGORY":"Elementary","NAME":"Orleans Wood Elementary School","NUM":"7859","STREET":"prom. Decarie Dr","PHONE":"613-837-4622","FULL_BOARD":"Ottawa-Carleton District School Board","CATEGORY_FR":"Élémentaire","NAME_FR":"École élémentaire Orleans Wood","BOARD_FR":"OCDSB","FULL_BOARD_FR":"Ottawa-Carleton District School Board"},"geometry":{"type":"Point","coordinates":[-75.52839742335613,45.48338193337153]}},{"type":"Feature","properties":{"OBJECTID":145,"BOARD":"CÉPEO","CATEGORY":"Elementary","NAME":"L'Odyssée Public Elementary School","NUM":"1770","STREET":"prom. Grey Nuns Dr","PHONE":"613-834-2097","FULL_BOARD":"Conseil des écoles publiques de l'Est de l'Ontario","CATEGORY_FR":"Élémentaire","NAME_FR":"École élémentaire publique L'Odyssée","BOARD_FR":"CÉPEO","FULL_BOARD_FR":"Conseil des écoles publiques de l'Est de l'Ontario"},"geometry":{"type":"Point","coordinates":[-75.53588845744241,45.4684673231735]}},{"type":"Feature","properties":{"OBJECTID":146,"BOARD":"OCDSB","CATEGORY":"Elementary","NAME":"Convent Glen Elementary School","NUM":"1708","STREET":"prom. Grey Nuns Dr","PHONE":"613-824-8177","FULL_BOARD":"Ottawa-Carleton District School Board","CATEGORY_FR":"Élémentaire","NAME_FR":"École élémentaire Convent Glen","BOARD_FR":"OCDSB","FULL_BOARD_FR":"Ottawa-Carleton District School Board"},"geometry":{"type":"Point","coordinates":[-75.53654578887178,45.46986363216339]}},{"type":"Feature","properties":{"OBJECTID":147,"BOARD":"OCSB","CATEGORY":"Elementary","NAME":"St. Thomas More School","NUM":"1620","STREET":"prom. Blohm Dr","PHONE":"613-739-7131","FULL_BOARD":"Ottawa Catholic School Board","CATEGORY_FR":"Élémentaire","NAME_FR":"École St. Thomas More","BOARD_FR":"OCSB","FULL_BOARD_FR":"Ottawa Catholic School Board"},"geometry":{"type":"Point","coordinates":[-75.60608861057204,45.37413801692782]}},{"type":"Feature","properties":{"OBJECTID":148,"BOARD":"OCDSB","CATEGORY":"Elementary","NAME":"Robert Bateman Public School","NUM":"1250","STREET":"prom. Blohm Dr","PHONE":"613-737-3169","FULL_BOARD":"Ottawa-Carleton District School Board","CATEGORY_FR":"Élémentaire","NAME_FR":"École publique Robert Bateman ","BOARD_FR":"OCDSB","FULL_BOARD_FR":"Ottawa-Carleton District School Board"},"geometry":{"type":"Point","coordinates":[-75.62062231341662,45.36856908832971]}},{"type":"Feature","properties":{"OBJECTID":149,"BOARD":"CECCE","CATEGORY":"Elementary","NAME":"Sainte-Geneviève Catholic Elementary School","NUM":"2198","STREET":"rue Arch St","PHONE":"613-733-9729","FULL_BOARD":"Conseil des écoles catholiques du Centre-Est","CATEGORY_FR":"Élémentaire","NAME_FR":"École élémentaire catholique Sainte-Geneviève","BOARD_FR":"CECCE","FULL_BOARD_FR":"Conseil des écoles catholiques du Centre-Est"},"geometry":{"type":"Point","coordinates":[-75.6311534943594,45.39020566513391]}},{"type":"Feature","properties":{"OBJECTID":150,"BOARD":"OCDSB","CATEGORY":"Elementary","NAME":"Arch Street Public School","NUM":"2129","STREET":"rue Arch St","PHONE":"613-733-0205","FULL_BOARD":"Ottawa-Carleton District School Board","CATEGORY_FR":"Élémentaire","NAME_FR":"École publique de la rue Arch","BOARD_FR":"OCDSB","FULL_BOARD_FR":"Ottawa-Carleton District School Board"},"geometry":{"type":"Point","coordinates":[-75.63018305962932,45.39184284555296]}},{"type":"Feature","properties":{"OBJECTID":151,"BOARD":"OCDSB","CATEGORY":"Elementary","NAME":"Hawthorne Public School","NUM":"2158","STREET":"boul. St. Laurent Blvd","PHONE":"613-733-6221","FULL_BOARD":"Ottawa-Carleton District School Board","CATEGORY_FR":"Élémentaire","NAME_FR":"École publique Hawthorne","BOARD_FR":"OCDSB","FULL_BOARD_FR":"Ottawa-Carleton District School Board"},"geometry":{"type":"Point","coordinates":[-75.6202652232097,45.392297853926124]}},{"type":"Feature","properties":{"OBJECTID":152,"BOARD":"CECCE","CATEGORY":"Elementary","NAME":"Des Pins Catholic Elementary School","NUM":"1487","STREET":"prom. Ridgebrook Dr","PHONE":"613-741-2354","FULL_BOARD":"Conseil des écoles catholiques du Centre-Est","CATEGORY_FR":"Élémentaire","NAME_FR":"École élémentaire catholique des Pins","BOARD_FR":"CECCE","FULL_BOARD_FR":"Conseil des écoles catholiques du Centre-Est"},"geometry":{"type":"Point","coordinates":[-75.60477082786431,45.42162028598059]}},{"type":"Feature","properties":{"OBJECTID":153,"BOARD":"OCSB","CATEGORY":"Elementary","NAME":"St. Gemma School","NUM":"1760","STREET":"av. McMaster Ave","PHONE":"613-731-8841","FULL_BOARD":"Ottawa Catholic School Board","CATEGORY_FR":"Élémentaire","NAME_FR":"École St. Gemma","BOARD_FR":"OCSB","FULL_BOARD_FR":"Ottawa Catholic School Board"},"geometry":{"type":"Point","coordinates":[-75.64669684878608,45.38673925180015]}},{"type":"Feature","properties":{"OBJECTID":154,"BOARD":"OCDSB","CATEGORY":"Elementary","NAME":"Featherston Drive Public School","NUM":"1801","STREET":"prom. Featherston Dr","PHONE":"613-731-3357","FULL_BOARD":"Ottawa-Carleton District School Board","CATEGORY_FR":"Élémentaire","NAME_FR":"École publique de la promenade Featherston","BOARD_FR":"OCDSB","FULL_BOARD_FR":"Ottawa-Carleton District School Board"},"geometry":{"type":"Point","coordinates":[-75.64590978625665,45.38385127958891]}},{"type":"Feature","properties":{"OBJECTID":155,"BOARD":"OCDSB","CATEGORY":"Elementary","NAME":"Pleasant Park Public School","NUM":"564","STREET":"ch. Pleasant Park Rd","PHONE":"613-733-5253","FULL_BOARD":"Ottawa-Carleton District School Board","CATEGORY_FR":"Élémentaire","NAME_FR":"École publique du Pleasant Park","BOARD_FR":"OCDSB","FULL_BOARD_FR":"Ottawa-Carleton District School Board"},"geometry":{"type":"Point","coordinates":[-75.64627625757008,45.39263005434423]}},{"type":"Feature","properties":{"OBJECTID":156,"BOARD":"PRIVATE","CATEGORY":"Elementary","NAME":"Acadecap International School","NUM":"1010","STREET":"prom. Morrison Dr, Suite 200","PHONE":"613-721-3872","FULL_BOARD":" ","CATEGORY_FR":"Élémentaire","NAME_FR":"Académie de la Capitale","BOARD_FR":"PRIVATE","FULL_BOARD_FR":" "},"geometry":{"type":"Point","coordinates":[-75.79115729578781,45.34712159258943]}},{"type":"Feature","properties":{"OBJECTID":157,"BOARD":"CECCE","CATEGORY":"Elementary","NAME":"La Source Individualized Instruction Catholic Elementary School","NUM":"1445","STREET":"prom. Duford Dr","PHONE":"613-744-8346","FULL_BOARD":"Conseil des écoles catholiques du Centre-Est","CATEGORY_FR":"Élémentaire","NAME_FR":"École élémentaire catholique d'enseignement personnalisé La Source","BOARD_FR":"CECCE","FULL_BOARD_FR":"Conseil des écoles catholiques du Centre-Est"},"geometry":{"type":"Point","coordinates":[-75.50821409351884,45.47254601392309]}},{"type":"Feature","properties":{"OBJECTID":158,"BOARD":"OCSB","CATEGORY":"Elementary","NAME":"Our Lady Of Wisdom School","NUM":"1565","STREET":"rue St. George St","PHONE":"613-824-9700","FULL_BOARD":"Ottawa Catholic School Board","CATEGORY_FR":"Élémentaire","NAME_FR":"École Our Lady Of Wisdom","BOARD_FR":"OCSB","FULL_BOARD_FR":"Ottawa Catholic School Board"},"geometry":{"type":"Point","coordinates":[-75.50095488945456,45.46760545368225]}},{"type":"Feature","properties":{"OBJECTID":159,"BOARD":"OCDSB","CATEGORY":"Elementary","NAME":"Dunning-Foubert Elementary School","NUM":"1610","STREET":"prom. Prestwick Dr","PHONE":"613-824-5800","FULL_BOARD":"Ottawa-Carleton District School Board","CATEGORY_FR":"Élémentaire","NAME_FR":"École élémentaire Dunning-Foubert","BOARD_FR":"OCDSB","FULL_BOARD_FR":"Ottawa-Carleton District School Board"},"geometry":{"type":"Point","coordinates":[-75.49866617075683,45.466856461635636]}},{"type":"Feature","properties":{"OBJECTID":160,"BOARD":"CECCE","CATEGORY":"Elementary","NAME":"Catholic Elementary School Reine des Bois","NUM":"1450","STREET":"rue Duford St","PHONE":"613-744-8647","FULL_BOARD":"Conseil des écoles catholiques du Centre-Est","CATEGORY_FR":"Élémentaire","NAME_FR":"École élémentaire catholique Reine-des-Bois","BOARD_FR":"CECCE","FULL_BOARD_FR":"Conseil des écoles catholiques du Centre-Est"},"geometry":{"type":"Point","coordinates":[-75.50956348075488,45.471891593598514]}},{"type":"Feature","properties":{"OBJECTID":161,"BOARD":"OCDSB","CATEGORY":"Elementary","NAME":"General Vanier Public School","NUM":"1025","STREET":"av. Harkness Ave","PHONE":"613-731-3631","FULL_BOARD":"Ottawa-Carleton District School Board","CATEGORY_FR":"Élémentaire","NAME_FR":"École publique Général Vanier","BOARD_FR":"OCDSB","FULL_BOARD_FR":"Ottawa-Carleton District School Board"},"geometry":{"type":"Point","coordinates":[-75.67462160282376,45.36768767748158]}},{"type":"Feature","properties":{"OBJECTID":162,"BOARD":"OCDSB","CATEGORY":"Secondary","NAME":"West Carleton Secondary School","NUM":"3088","STREET":"ch. Dunrobin Rd, RR2","PHONE":"613-832-2773","FULL_BOARD":"Ottawa-Carleton District School Board","CATEGORY_FR":"Secondaire","NAME_FR":"École secondaire West Carleton","BOARD_FR":"OCDSB","FULL_BOARD_FR":"Ottawa-Carleton District School Board"},"geometry":{"type":"Point","coordinates":[-76.03464217527161,45.434433931004385]}},{"type":"Feature","properties":{"OBJECTID":163,"BOARD":"OCDSB","CATEGORY":"Secondary","NAME":"Osgoode Township High School","NUM":"2800","STREET":"ch. 8th Line Rd","PHONE":"613-821-2241","FULL_BOARD":"Ottawa-Carleton District School Board","CATEGORY_FR":"Secondaire","NAME_FR":"École secondaire du Canton d'Osgoode","BOARD_FR":"OCDSB","FULL_BOARD_FR":"Ottawa-Carleton District School Board"},"geometry":{"type":"Point","coordinates":[-75.4700668942302,45.22882594001923]}},{"type":"Feature","properties":{"OBJECTID":164,"BOARD":"OCDSB","CATEGORY":"Secondary","NAME":"John McCrae Secondary School","NUM":"103","STREET":"prom. Malvern Dr","PHONE":"613-823-0367","FULL_BOARD":"Ottawa-Carleton District School Board","CATEGORY_FR":"Secondaire","NAME_FR":"École secondaire John McCrae","BOARD_FR":"OCDSB","FULL_BOARD_FR":"Ottawa-Carleton District School Board"},"geometry":{"type":"Point","coordinates":[-75.76306793266086,45.27916175080284]}},{"type":"Feature","properties":{"OBJECTID":165,"BOARD":"OCDSB","CATEGORY":"Secondary","NAME":"Gloucester High School","NUM":"2060","STREET":"ch. Ogilvie Rd","PHONE":"613-745-7176","FULL_BOARD":"Ottawa-Carleton District School Board","CATEGORY_FR":"Secondaire","NAME_FR":"École secondaire Gloucester","BOARD_FR":"OCDSB","FULL_BOARD_FR":"Ottawa-Carleton District School Board"},"geometry":{"type":"Point","coordinates":[-75.59886353081045,45.43875176202551]}},{"type":"Feature","properties":{"OBJECTID":166,"BOARD":"OCDSB","CATEGORY":"Secondary","NAME":"Earl Of March Secondary School","NUM":"4","STREET":"The Parkway","PHONE":"613-592-3361","FULL_BOARD":"Ottawa-Carleton District School Board","CATEGORY_FR":"Secondaire","NAME_FR":"École secondaire Earl Of March","BOARD_FR":"OCDSB","FULL_BOARD_FR":"Ottawa-Carleton District School Board"},"geometry":{"type":"Point","coordinates":[-75.89404326407946,45.32252659666926]}},{"type":"Feature","properties":{"OBJECTID":167,"BOARD":"OCDSB","CATEGORY":"Secondary","NAME":"A.Y. Jackson Secondary School","NUM":"150","STREET":"prom. Abbeyhill Dr","PHONE":"613-836-2527","FULL_BOARD":"Ottawa-Carleton District School Board","CATEGORY_FR":"Secondaire","NAME_FR":"École secondaire A.Y. Jackson","BOARD_FR":"OCDSB","FULL_BOARD_FR":"Ottawa-Carleton District School Board"},"geometry":{"type":"Point","coordinates":[-75.87987506596106,45.29512403920361]}},{"type":"Feature","properties":{"OBJECTID":168,"BOARD":"OCSB","CATEGORY":"Secondary","NAME":"St. Joseph High School","NUM":"3333","STREET":"ch. Greenbank Road","PHONE":"613-823-4797","FULL_BOARD":"Ottawa Catholic School Board","CATEGORY_FR":"Secondaire","NAME_FR":"École secondaire St. Joseph","BOARD_FR":"OCSB","FULL_BOARD_FR":"Ottawa Catholic School Board"},"geometry":{"type":"Point","coordinates":[-75.73966024204503,45.2626015421219]}},{"type":"Feature","properties":{"OBJECTID":169,"BOARD":"OCSB","CATEGORY":"Secondary","NAME":"St. Nicholas Adult High School (Central Campus)","NUM":"20","STREET":"av. Graham Ave","PHONE":"613-234-2768","FULL_BOARD":"Ottawa Catholic School Board","CATEGORY_FR":"Secondaire","NAME_FR":"École secondaire pour adultes St, Nicholas (Campus Centre)","BOARD_FR":"OCSB","FULL_BOARD_FR":"Ottawa Catholic School Board"},"geometry":{"type":"Point","coordinates":[-75.68105678856611,45.411470087560595]}},{"type":"Feature","properties":{"OBJECTID":170,"BOARD":"OCSB","CATEGORY":"Secondary","NAME":"Immaculata High School","NUM":"140","STREET":"rue Main St","PHONE":"613-237-2001","FULL_BOARD":"Ottawa Catholic School Board","CATEGORY_FR":"Secondaire","NAME_FR":"École secondaire Immaculata","BOARD_FR":"OCSB","FULL_BOARD_FR":"Ottawa Catholic School Board"},"geometry":{"type":"Point","coordinates":[-75.67941622680377,45.410266596719964]}},{"type":"Feature","properties":{"OBJECTID":171,"BOARD":"OCDSB","CATEGORY":"Secondary","NAME":"Adult High School","NUM":"300","STREET":"rue Rochester St","PHONE":"613-239-2707","FULL_BOARD":"Ottawa-Carleton District School Board","CATEGORY_FR":"Secondaire","NAME_FR":"École secondaire pour adultes","BOARD_FR":"OCDSB","FULL_BOARD_FR":"Ottawa-Carleton District School Board"},"geometry":{"type":"Point","coordinates":[-75.7097089004045,45.40454804221934]}},{"type":"Feature","properties":{"OBJECTID":172,"BOARD":"OCDSB","CATEGORY":"Secondary","NAME":"Woodroffe High School","NUM":"2410","STREET":"prom. Georgina Dr","PHONE":"613-820-7186","FULL_BOARD":"Ottawa-Carleton District School Board","CATEGORY_FR":"Secondaire","NAME_FR":"École secondaire Woodroffe","BOARD_FR":"OCDSB","FULL_BOARD_FR":"Ottawa-Carleton District School Board"},"geometry":{"type":"Point","coordinates":[-75.78026502174524,45.36238130851639]}},{"type":"Feature","properties":{"OBJECTID":173,"BOARD":"OCDSB","CATEGORY":"Secondary","NAME":"Sir Robert Borden High School","NUM":"131","STREET":"ch. Greenbank Rd","PHONE":"613-829-5320","FULL_BOARD":"Ottawa-Carleton District School Board","CATEGORY_FR":"Secondaire","NAME_FR":"École secondaire Sir Robert Borden","BOARD_FR":"OCDSB","FULL_BOARD_FR":"Ottawa-Carleton District School Board"},"geometry":{"type":"Point","coordinates":[-75.78138613718613,45.332234375986864]}},{"type":"Feature","properties":{"OBJECTID":174,"BOARD":"OCDSB","CATEGORY":"Special Education","NAME":"Crystal Bay Centre for Special Education","NUM":"31","STREET":"prom. Moodie Dr","PHONE":"613-828-5376","FULL_BOARD":"Ottawa-Carleton District School Board","CATEGORY_FR":"Éducation Spéciale","NAME_FR":"Centre d'éducation spéciale Crystal Bay ","BOARD_FR":"OCDSB","FULL_BOARD_FR":"Ottawa-Carleton District School Board"},"geometry":{"type":"Point","coordinates":[-75.84417616209723,45.34934848646147]}},{"type":"Feature","properties":{"OBJECTID":175,"BOARD":"OCDSB","CATEGORY":"Special Education","NAME":"Clifford Bowey Public School","NUM":"1300","STREET":"av. Kitchener Ave","PHONE":"613-737-4401","FULL_BOARD":"Ottawa-Carleton District School Board","CATEGORY_FR":"Éducation Spéciale","NAME_FR":"École publique Clifford Bowey","BOARD_FR":"OCDSB","FULL_BOARD_FR":"Ottawa-Carleton District School Board"},"geometry":{"type":"Point","coordinates":[-75.65687657285709,45.36769305395377]}},{"type":"Feature","properties":{"OBJECTID":176,"BOARD":"OCDSB","CATEGORY":"Special Education","NAME":"Storefront School","NUM":"1400","STREET":"boul. St Laurent Blvd","PHONE":"613-749-9550","FULL_BOARD":"Ottawa-Carleton District School Board","CATEGORY_FR":"Éducation Spéciale","NAME_FR":"École Storefront","BOARD_FR":"OCDSB","FULL_BOARD_FR":"Ottawa-Carleton District School Board"},"geometry":{"type":"Point","coordinates":[-75.63932004087808,45.422470912787475]}},{"type":"Feature","properties":{"OBJECTID":177,"BOARD":"OCSB","CATEGORY":"Elementary","NAME":"St. Anthony School","NUM":"391","STREET":"rue Booth St","PHONE":"613-235-0340","FULL_BOARD":"Ottawa Catholic School Board","CATEGORY_FR":"Élémentaire","NAME_FR":"École St. Anthony","BOARD_FR":"OCSB","FULL_BOARD_FR":"Ottawa Catholic School Board"},"geometry":{"type":"Point","coordinates":[-75.70841204125637,45.40631384593108]}},{"type":"Feature","properties":{"OBJECTID":178,"BOARD":"OCDSB","CATEGORY":"Elementary","NAME":"Cambridge Street Community Public School","NUM":"250","STREET":"rue Cambridge St  N","PHONE":"613-239-2216","FULL_BOARD":"Ottawa-Carleton District School Board","CATEGORY_FR":"Élémentaire","NAME_FR":"École publique communautaire de la rue Cambridge","BOARD_FR":"OCDSB","FULL_BOARD_FR":"Ottawa-Carleton District School Board"},"geometry":{"type":"Point","coordinates":[-75.70517199589298,45.40789342888261]}},{"type":"Feature","properties":{"OBJECTID":179,"BOARD":"OCDSB","CATEGORY":"Elementary","NAME":"Hilson Avenue Public School","NUM":"407","STREET":"av. Hillson Ave","PHONE":"613-728-4607","FULL_BOARD":"Ottawa-Carleton District School Board","CATEGORY_FR":"Élémentaire","NAME_FR":"École publique de l'avenue Hilson","BOARD_FR":"OCDSB","FULL_BOARD_FR":"Ottawa-Carleton District School Board"},"geometry":{"type":"Point","coordinates":[-75.74447857076876,45.39527898696421]}},{"type":"Feature","properties":{"OBJECTID":180,"BOARD":"PRIVATE","CATEGORY":"Elementary","NAME":"Centre Jules-Léger","NUM":"281","STREET":"av. Lanark Ave","PHONE":"613-761-9300","FULL_BOARD":" ","CATEGORY_FR":"Élémentaire","NAME_FR":"Centre Jules-Léger","BOARD_FR":"PRIVATE","FULL_BOARD_FR":" "},"geometry":{"type":"Point","coordinates":[-75.75294173560437,45.399002392399346]}},{"type":"Feature","properties":{"OBJECTID":181,"BOARD":"OCDSB","CATEGORY":"Elementary","NAME":"Severn Avenue Public School","NUM":"2553","STREET":"av. Severn Ave","PHONE":"613-829-8082","FULL_BOARD":"Ottawa-Carleton District School Board","CATEGORY_FR":"Élémentaire","NAME_FR":"École publique de l'avenue Severn","BOARD_FR":"OCDSB","FULL_BOARD_FR":"Ottawa-Carleton District School Board"},"geometry":{"type":"Point","coordinates":[-75.78341960498577,45.35718195408367]}},{"type":"Feature","properties":{"OBJECTID":182,"BOARD":"CECCE","CATEGORY":"Elementary","NAME":"Édouard-Bond Individualized Instruction Catholic Elementary School","NUM":"920","STREET":"av. Parkhaven Ave","PHONE":"613-820-4045","FULL_BOARD":"Conseil des écoles catholiques du Centre-Est","CATEGORY_FR":"Élémentaire","NAME_FR":"École élémentaire catholique d'enseignement personnalisé Édouard-Bond","BOARD_FR":"CECCE","FULL_BOARD_FR":"Conseil des écoles catholiques du Centre-Est"},"geometry":{"type":"Point","coordinates":[-75.77698012260139,45.36282844664456]}},{"type":"Feature","properties":{"OBJECTID":183,"BOARD":"PRIVATE","CATEGORY":"Elementary","NAME":"Abraar School","NUM":"70","STREET":"rue Fieldrow St","PHONE":"613-226-1396","FULL_BOARD":" ","CATEGORY_FR":"Élémentaire","NAME_FR":"École élémentaire Abraar","BOARD_FR":"PRIVATE","FULL_BOARD_FR":" "},"geometry":{"type":"Point","coordinates":[-75.73988675404055,45.34402587319821]}},{"type":"Feature","properties":{"OBJECTID":184,"BOARD":"OCDSB","CATEGORY":"Elementary","NAME":"Manordale Public School","NUM":"16","STREET":"rue Carola St","PHONE":"613-226-6393","FULL_BOARD":"Ottawa-Carleton District School Board","CATEGORY_FR":"Élémentaire","NAME_FR":"École publique Manordale","BOARD_FR":"OCDSB","FULL_BOARD_FR":"Ottawa-Carleton District School Board"},"geometry":{"type":"Point","coordinates":[-75.7599851760155,45.328667438421604]}},{"type":"Feature","properties":{"OBJECTID":185,"BOARD":"OCDSB","CATEGORY":"Elementary","NAME":"Rockcliffe Park Public School","NUM":"350","STREET":"ch. Buena Vista Rd","PHONE":"613-749-5387","FULL_BOARD":"Ottawa-Carleton District School Board","CATEGORY_FR":"Élémentaire","NAME_FR":"École publique Rockcliffe Park","BOARD_FR":"OCDSB","FULL_BOARD_FR":"Ottawa-Carleton District School Board"},"geometry":{"type":"Point","coordinates":[-75.67817989883443,45.45002149521849]}},{"type":"Feature","properties":{"OBJECTID":186,"BOARD":"PRIVATE","CATEGORY":"Elementary","NAME":"Ashbury College","NUM":"362","STREET":"av. Mariposa Ave","PHONE":"613-749-5954","FULL_BOARD":" ","CATEGORY_FR":"Élémentaire","NAME_FR":"Collège Ashbury","BOARD_FR":"PRIVATE","FULL_BOARD_FR":" "},"geometry":{"type":"Point","coordinates":[-75.67565414168267,45.4478707970082]}},{"type":"Feature","properties":{"OBJECTID":187,"BOARD":"PRIVATE","CATEGORY":"Elementary","NAME":"Elmwood  School","NUM":"261","STREET":"ch. Buena Vista Rd","PHONE":"613-749-6761","FULL_BOARD":" ","CATEGORY_FR":"Élémentaire","NAME_FR":"École Elmwood","BOARD_FR":"PRIVATE","FULL_BOARD_FR":" "},"geometry":{"type":"Point","coordinates":[-75.6798873832888,45.45129350409899]}},{"type":"Feature","properties":{"OBJECTID":188,"BOARD":"OCDSB","CATEGORY":"Elementary","NAME":"Manor Park Public School","NUM":"100","STREET":"rue Braemar St","PHONE":"613-746-8131","FULL_BOARD":"Ottawa-Carleton District School Board","CATEGORY_FR":"Élémentaire","NAME_FR":"École publique Manor Park ","BOARD_FR":"OCDSB","FULL_BOARD_FR":"Ottawa-Carleton District School Board"},"geometry":{"type":"Point","coordinates":[-75.65601817870419,45.449977331054164]}},{"type":"Feature","properties":{"OBJECTID":189,"BOARD":"CECCE","CATEGORY":"Elementary","NAME":"Saint-Guillaume Catholic Elementary School","NUM":"5750","STREET":"ch. Buckland Rd","PHONE":"613-745-5981","FULL_BOARD":"Conseil des écoles catholiques du Centre-Est","CATEGORY_FR":"Élémentaire","NAME_FR":"École élémentaire catholique Saint-Guillaume","BOARD_FR":"CECCE","FULL_BOARD_FR":"Conseil des écoles catholiques du Centre-Est"},"geometry":{"type":"Point","coordinates":[-75.35388710479857,45.35548967990809]}},{"type":"Feature","properties":{"OBJECTID":190,"BOARD":"OCDSB","CATEGORY":"Elementary","NAME":"Heritage Public School","NUM":"1375","STREET":"ch. Colonial Rd","PHONE":"613-835-1700","FULL_BOARD":"Ottawa-Carleton District School Board","CATEGORY_FR":"Élémentaire","NAME_FR":"École publique Heritage","BOARD_FR":"OCDSB","FULL_BOARD_FR":"Ottawa-Carleton District School Board"},"geometry":{"type":"Point","coordinates":[-75.41654534685748,45.42150389938928]}},{"type":"Feature","properties":{"OBJECTID":191,"BOARD":"OCDSB","CATEGORY":"Elementary","NAME":"Adrienne Clarkson Public School","NUM":"170","STREET":"prom. Stoneway Dr.","PHONE":"613-825-8600","FULL_BOARD":"Ottawa-Carleton District School Board","CATEGORY_FR":"Élémentaire","NAME_FR":"École publique Adrienne Clarkson","BOARD_FR":"OCDSB","FULL_BOARD_FR":"Ottawa-Carleton District School Board"},"geometry":{"type":"Point","coordinates":[-75.71656170214266,45.28873848658923]}},{"type":"Feature","properties":{"OBJECTID":192,"BOARD":"OCSB","CATEGORY":"Elementary","NAME":"St. Andrew School","NUM":"201","STREET":"prom. Crestway Dr","PHONE":"613-843-0050","FULL_BOARD":"Ottawa Catholic School Board","CATEGORY_FR":"Élémentaire","NAME_FR":"École St. Andrew","BOARD_FR":"OCSB","FULL_BOARD_FR":"Ottawa Catholic School Board"},"geometry":{"type":"Point","coordinates":[-75.70879248227077,45.28441065698261]}},{"type":"Feature","properties":{"OBJECTID":193,"BOARD":"OCDSB","CATEGORY":"Elementary","NAME":"Farley Mowat Public School","NUM":"75","STREET":"prom. Waterbridge Dr","PHONE":"613-825-3006","FULL_BOARD":"Ottawa-Carleton District School Board","CATEGORY_FR":"Élémentaire","NAME_FR":"École publique Farley Mowat","BOARD_FR":"OCDSB","FULL_BOARD_FR":"Ottawa-Carleton District School Board"},"geometry":{"type":"Point","coordinates":[-75.70838932735441,45.28175796540728]}},{"type":"Feature","properties":{"OBJECTID":194,"BOARD":"CÉPEO","CATEGORY":"Elementary","NAME":"Michaëlle-Jean Public Elementary School","NUM":"11","STREET":"prom. Claridge Dr","PHONE":"613-823-2288","FULL_BOARD":"Conseil des écoles publiques de l'Est de l'Ontario","CATEGORY_FR":"Élémentaire","NAME_FR":"École élémentaire publique Michaëlle-Jean","BOARD_FR":"CÉPEO","FULL_BOARD_FR":"Conseil des écoles publiques de l'Est de l'Ontario"},"geometry":{"type":"Point","coordinates":[-75.72632147549642,45.28796289868933]}},{"type":"Feature","properties":{"OBJECTID":195,"BOARD":"OCDSB","CATEGORY":"Elementary","NAME":"Steve MacLean Public School","NUM":"4175","STREET":"ch. Spratt Rd","PHONE":"613-822- 0341","FULL_BOARD":"Ottawa-Carleton District School Board","CATEGORY_FR":"Élémentaire","NAME_FR":"École publique Steve MacLean ","BOARD_FR":"OCDSB","FULL_BOARD_FR":"Ottawa-Carleton District School Board"},"geometry":{"type":"Point","coordinates":[-75.6854249490431,45.28150601909654]}},{"type":"Feature","properties":{"OBJECTID":196,"BOARD":"OCSB","CATEGORY":"Elementary/Secondary","NAME":"St. Matthew High School","NUM":"6550","STREET":"prom. Bilberry Dr","PHONE":"613-837-3161","FULL_BOARD":"Ottawa Catholic School Board","CATEGORY_FR":"Élémentaire/Secondaire","NAME_FR":"École secondaire St. Matthew","BOARD_FR":"OCSB","FULL_BOARD_FR":"Ottawa Catholic School Board"},"geometry":{"type":"Point","coordinates":[-75.53254150806865,45.4803468905286]}},{"type":"Feature","properties":{"OBJECTID":197,"BOARD":"OCSB","CATEGORY":"Elementary/Secondary","NAME":"St. Peter High School","NUM":"750","STREET":"boul. Charlemagne Blvd","PHONE":"613-837-9377","FULL_BOARD":"Ottawa Catholic School Board","CATEGORY_FR":"Élémentaire/Secondaire","NAME_FR":"École secondaire St. Peter","BOARD_FR":"OCSB","FULL_BOARD_FR":"Ottawa Catholic School Board"},"geometry":{"type":"Point","coordinates":[-75.47590928351322,45.47490663592827]}},{"type":"Feature","properties":{"OBJECTID":198,"BOARD":"CÉPEO","CATEGORY":"Elementary/Secondary","NAME":"Le Transit School","NUM":"135","STREET":"rue Alice St Suite 200","PHONE":"613-747-3838","FULL_BOARD":"Conseil des écoles publiques de l'Est de l'Ontario","CATEGORY_FR":"Élémentaire/Secondaire","NAME_FR":"École Le Transit","BOARD_FR":"CÉPEO","FULL_BOARD_FR":"Conseil des écoles publiques de l'Est de l'Ontario"},"geometry":{"type":"Point","coordinates":[-75.67085883049147,45.439767738764715]}},{"type":"Feature","properties":{"OBJECTID":199,"BOARD":"OCSB","CATEGORY":"Elementary/Secondary","NAME":"St. Paul High School","NUM":"2675","STREET":"av. Draper Av","PHONE":"613-820-9705","FULL_BOARD":"Ottawa Catholic School Board","CATEGORY_FR":"Élémentaire/Secondaire","NAME_FR":"École secondaire St. Paul","BOARD_FR":"OCSB","FULL_BOARD_FR":"Ottawa Catholic School Board"},"geometry":{"type":"Point","coordinates":[-75.79266646995671,45.34173335767676]}},{"type":"Feature","properties":{"OBJECTID":200,"BOARD":"OCSB","CATEGORY":"Elementary/Secondary","NAME":"Holy Trinity Catholic High School","NUM":"180","STREET":"ch. Katimavik Rd","PHONE":"613-591-9955","FULL_BOARD":"Ottawa Catholic School Board","CATEGORY_FR":"Élémentaire/Secondaire","NAME_FR":"École secondaire catholique Holy Trinity","BOARD_FR":"OCSB","FULL_BOARD_FR":"Ottawa Catholic School Board"},"geometry":{"type":"Point","coordinates":[-75.90248795056968,45.30805491187423]}},{"type":"Feature","properties":{"OBJECTID":201,"BOARD":"OCSB","CATEGORY":"Elementary/Secondary","NAME":"St. Pius X Catholic Elementary School & High School","NUM":"1481","STREET":"av. Fisher Ave","PHONE":"613-225-8105","FULL_BOARD":"Ottawa Catholic School Board","CATEGORY_FR":"Élémentaire/Secondaire","NAME_FR":"École élémentaire et école secondaire catholique St. Pius X","BOARD_FR":"OCSB","FULL_BOARD_FR":"Ottawa Catholic School Board"},"geometry":{"type":"Point","coordinates":[-75.71252371655005,45.36551408172301]}},{"type":"Feature","properties":{"OBJECTID":202,"BOARD":"OCSB","CATEGORY":"Elementary/Secondary","NAME":"Lester B. Pearson Catholic High School","NUM":"2072","STREET":"crois. Jasmine  Cr","PHONE":"613-741-4525","FULL_BOARD":"Ottawa Catholic School Board","CATEGORY_FR":"Élémentaire/Secondaire","NAME_FR":"École secondaire catholique Lester B. Pearson","BOARD_FR":"OCSB","FULL_BOARD_FR":"Ottawa Catholic School Board"},"geometry":{"type":"Point","coordinates":[-75.59593556287172,45.44348211382835]}},{"type":"Feature","properties":{"OBJECTID":203,"BOARD":"OCSB","CATEGORY":"Elementary/Secondary","NAME":"St. Mother Teresa High School","NUM":"440","STREET":"prom. Longfields Dr","PHONE":"613-823-1663","FULL_BOARD":"Ottawa Catholic School Board","CATEGORY_FR":"Élémentaire/Secondaire","NAME_FR":"École secondaire St. Mother Teresa","BOARD_FR":"OCSB","FULL_BOARD_FR":"Ottawa Catholic School Board"},"geometry":{"type":"Point","coordinates":[-75.7394172899815,45.28498724749651]}},{"type":"Feature","properties":{"OBJECTID":204,"BOARD":"OCSB","CATEGORY":"Elementary/Secondary","NAME":"St. Mark High School","NUM":"1040","STREET":"ch. Dozois Rd","PHONE":"613-692-2551","FULL_BOARD":"Ottawa Catholic School Board","CATEGORY_FR":"Élémentaire/Secondaire","NAME_FR":"École secondaire St. Mark ","BOARD_FR":"OCSB","FULL_BOARD_FR":"Ottawa Catholic School Board"},"geometry":{"type":"Point","coordinates":[-75.64837166959843,45.24411036351773]}},{"type":"Feature","properties":{"OBJECTID":205,"BOARD":"OCDSB","CATEGORY":"Intermediate","NAME":"Glashan Public School","NUM":"28","STREET":"av. Arlington Ave","PHONE":"613-239-2264","FULL_BOARD":"Ottawa-Carleton District School Board","CATEGORY_FR":"Intermédiaire","NAME_FR":"École publique Glashan","BOARD_FR":"OCDSB","FULL_BOARD_FR":"Ottawa-Carleton District School Board"},"geometry":{"type":"Point","coordinates":[-75.69325371104864,45.409528223845626]}},{"type":"Feature","properties":{"OBJECTID":206,"BOARD":"OCDSB","CATEGORY":"Intermediate","NAME":"Cedarview Middle School","NUM":"2760","STREET":"ch. Cedarview Rd","PHONE":"613-825-2185","FULL_BOARD":"Ottawa-Carleton District School Board","CATEGORY_FR":"Intermédiaire","NAME_FR":"École intermédiaire Cedarview","BOARD_FR":"OCDSB","FULL_BOARD_FR":"Ottawa-Carleton District School Board"},"geometry":{"type":"Point","coordinates":[-75.78021933792147,45.277287591865196]}},{"type":"Feature","properties":{"OBJECTID":207,"BOARD":"OCDSB","CATEGORY":"Secondary","NAME":"Longfields-Davidson Heights Secondary School","NUM":"149","STREET":"prom. Berrigan Dr","PHONE":"613-843-7722","FULL_BOARD":"Ottawa-Carleton District School Board","CATEGORY_FR":"Secondaire","NAME_FR":"École secondaire Longfields-Davidson Heights ","BOARD_FR":"OCDSB","FULL_BOARD_FR":"Ottawa-Carleton District School Board"},"geometry":{"type":"Point","coordinates":[-75.74039891233012,45.27973175386278]}},{"type":"Feature","properties":{"OBJECTID":208,"BOARD":"OCSB","CATEGORY":"Secondary","NAME":"St. Nicholas Adult High School (West Campus)","NUM":"893","STREET":"av. Admiral Ave","PHONE":"613-228-8888","FULL_BOARD":"Ottawa Catholic School Board","CATEGORY_FR":"Secondaire","NAME_FR":"École secondaire pour adultes St. Nicholas (Campus Ouest)","BOARD_FR":"OCSB","FULL_BOARD_FR":"Ottawa Catholic School Board"},"geometry":{"type":"Point","coordinates":[-75.72870636782848,45.38403564608728]}},{"type":"Feature","properties":{"OBJECTID":209,"BOARD":"OCSB","CATEGORY":"Secondary","NAME":"St. Francis Xavier High School","NUM":"3740","STREET":"ch.Spratt Rd","PHONE":"613-822-7900","FULL_BOARD":"Ottawa Catholic School Board","CATEGORY_FR":"Secondaire","NAME_FR":"École secondaire St. Francis-Xavier","BOARD_FR":"OCSB","FULL_BOARD_FR":"Ottawa Catholic School Board"},"geometry":{"type":"Point","coordinates":[-75.66894927809876,45.290578659479586]}},{"type":"Feature","properties":{"OBJECTID":210,"BOARD":"CÉPEO","CATEGORY":"Secondary","NAME":"Louis-Riel Public High School","NUM":"1655","STREET":"ch. Bearbrook Rd","PHONE":"613-590-2233","FULL_BOARD":"Conseil des écoles publiques de l'Est de l'Ontario","CATEGORY_FR":"Secondaire","NAME_FR":"École secondaire publique Louis-Riel","BOARD_FR":"CÉPEO","FULL_BOARD_FR":"Conseil des écoles publiques de l'Est de l'Ontario"},"geometry":{"type":"Point","coordinates":[-75.57152777605344,45.44154744343464]}},{"type":"Feature","properties":{"OBJECTID":211,"BOARD":"OCDSB","CATEGORY":"Secondary","NAME":"Cairine Wilson Secondary School","NUM":"975","STREET":"boul. Orléans Blvd","PHONE":"613-824-4411","FULL_BOARD":"Ottawa-Carleton District School Board","CATEGORY_FR":"Secondaire","NAME_FR":"École secondaire Cairine-Wilson","BOARD_FR":"OCDSB","FULL_BOARD_FR":"Ottawa-Carleton District School Board"},"geometry":{"type":"Point","coordinates":[-75.53994064719629,45.482354713672976]}},{"type":"Feature","properties":{"OBJECTID":212,"BOARD":"PRIVATE","CATEGORY":"Secondary","NAME":"Redeemer Christian High School","NUM":"82","STREET":"rue Colonnade Rd N","PHONE":"613-723-9262","FULL_BOARD":" ","CATEGORY_FR":"Secondaire","NAME_FR":"École secondaire chrétienne Redeemer","BOARD_FR":"PRIVATE","FULL_BOARD_FR":" "},"geometry":{"type":"Point","coordinates":[-75.7098325678764,45.34678604316552]}},{"type":"Feature","properties":{"OBJECTID":213,"BOARD":"OCDSB","CATEGORY":"Secondary","NAME":"Hillcrest High School","NUM":"1900","STREET":"ch. Dauphin Rd","PHONE":"613-733-1755","FULL_BOARD":"Ottawa-Carleton District School Board","CATEGORY_FR":"Secondaire","NAME_FR":"École secondaire Hillcrest","BOARD_FR":"OCDSB","FULL_BOARD_FR":"Ottawa-Carleton District School Board"},"geometry":{"type":"Point","coordinates":[-75.63913973552583,45.39834452553892]}},{"type":"Feature","properties":{"OBJECTID":214,"BOARD":"OCDSB","CATEGORY":"Secondary","NAME":"Canterbury High School","NUM":"900","STREET":"av. Canterbury Ave","PHONE":"613-731-1191","FULL_BOARD":"Ottawa-Carleton District School Board","CATEGORY_FR":"Secondaire","NAME_FR":"École secondaire Canterbury","BOARD_FR":"OCDSB","FULL_BOARD_FR":"Ottawa-Carleton District School Board"},"geometry":{"type":"Point","coordinates":[-75.62601428202628,45.388031685654404]}},{"type":"Feature","properties":{"OBJECTID":215,"BOARD":"OCDSB","CATEGORY":"Secondary","NAME":"Brookfield High School","NUM":"824","STREET":"ch. Brookfield Rd","PHONE":"613-733-0610","FULL_BOARD":"Ottawa-Carleton District School Board","CATEGORY_FR":"Secondaire","NAME_FR":"École secondaire Brookfield","BOARD_FR":"OCDSB","FULL_BOARD_FR":"Ottawa-Carleton District School Board"},"geometry":{"type":"Point","coordinates":[-75.68461182369232,45.37153824361861]}},{"type":"Feature","properties":{"OBJECTID":216,"BOARD":"CÉPEO","CATEGORY":"Secondary","NAME":"De la Salle Public High School","NUM":"501","STREET":"rue Old St-Patrick St","PHONE":"613-789-0053","FULL_BOARD":"Conseil des écoles publiques de l'Est de l'Ontario","CATEGORY_FR":"Secondaire","NAME_FR":"École secondaire publique De la Salle","BOARD_FR":"CÉPEO","FULL_BOARD_FR":"Conseil des écoles publiques de l'Est de l'Ontario"},"geometry":{"type":"Point","coordinates":[-75.68507050796796,45.434862497972695]}},{"type":"Feature","properties":{"OBJECTID":217,"BOARD":"CECCE","CATEGORY":"Secondary","NAME":"Garneau Catholic High School","NUM":"6588","STREET":"rue Carrière St","PHONE":"613-820-1750","FULL_BOARD":"Conseil des écoles catholiques du Centre-Est","CATEGORY_FR":"Secondaire","NAME_FR":"École secondaire catholique Garneau","BOARD_FR":"CECCE","FULL_BOARD_FR":"Conseil des écoles catholiques du Centre-Est"},"geometry":{"type":"Point","coordinates":[-75.5250667748115,45.4650780922633]}},{"type":"Feature","properties":{"OBJECTID":218,"BOARD":"CÉPEO","CATEGORY":"Secondary","NAME":"L'Alternative Public High School","NUM":"2445","STREET":"boul. St-Laurent Blvd","PHONE":"613-745-0369","FULL_BOARD":"Conseil des écoles publiques de l'Est de l'Ontario","CATEGORY_FR":"Secondaire","NAME_FR":"École secondaire publique L'Alternative","BOARD_FR":"CÉPEO","FULL_BOARD_FR":"Conseil des écoles publiques de l'Est de l'Ontario"},"geometry":{"type":"Point","coordinates":[-75.62611929328635,45.381020710337765]}},{"type":"Feature","properties":{"OBJECTID":219,"BOARD":"CECCE","CATEGORY":"Secondary","NAME":"Continuing Education","NUM":"181","STREET":"rue Donald St","PHONE":"613-741-2304","FULL_BOARD":"Conseil des écoles catholiques du Centre-Est","CATEGORY_FR":"Secondaire","NAME_FR":"Éducation permanente","BOARD_FR":"CECCE","FULL_BOARD_FR":"Conseil des écoles catholiques du Centre-Est"},"geometry":{"type":"Point","coordinates":[-75.6612882387433,45.42772379310481]}},{"type":"Feature","properties":{"OBJECTID":220,"BOARD":"OCDSB","CATEGORY":"Secondary","NAME":"Ottawa Technical Secondary School","NUM":"485","STREET":"rue Donald St","PHONE":"613-745-0347","FULL_BOARD":"Ottawa-Carleton District School Board","CATEGORY_FR":"Secondaire","NAME_FR":"École secondaire technique d'Ottawa","BOARD_FR":"OCDSB","FULL_BOARD_FR":"Ottawa-Carleton District School Board"},"geometry":{"type":"Point","coordinates":[-75.64634735383491,45.4295419496396]}},{"type":"Feature","properties":{"OBJECTID":221,"BOARD":"OCSB","CATEGORY":"Secondary","NAME":"St. Patrick's High School","NUM":"2525","STREET":"prom. Alta Vista Dr","PHONE":"613-733-0501","FULL_BOARD":"Ottawa Catholic School Board","CATEGORY_FR":"Secondaire","NAME_FR":"École secondaire St. Patrick's","BOARD_FR":"OCSB","FULL_BOARD_FR":"Ottawa Catholic School Board"},"geometry":{"type":"Point","coordinates":[-75.66005903890571,45.37823990626085]}},{"type":"Feature","properties":{"OBJECTID":222,"BOARD":"OCSB","CATEGORY":"Secondary","NAME":"Notre Dame High School","NUM":"710","STREET":"av. Broadview Ave","PHONE":"613-722-6565","FULL_BOARD":"Ottawa Catholic School Board","CATEGORY_FR":"Secondaire","NAME_FR":"École secondaire Notre-Dame","BOARD_FR":"OCSB","FULL_BOARD_FR":"Ottawa Catholic School Board"},"geometry":{"type":"Point","coordinates":[-75.75623216028553,45.378703830267874]}},{"type":"Feature","properties":{"OBJECTID":223,"BOARD":"OCDSB","CATEGORY":"Secondary","NAME":"Nepean High School","NUM":"574","STREET":"av. Broadview Ave","PHONE":"613-722-6551","FULL_BOARD":"Ottawa-Carleton District School Board","CATEGORY_FR":"Secondaire","NAME_FR":"École secondaire Nepean","BOARD_FR":"OCDSB","FULL_BOARD_FR":"Ottawa-Carleton District School Board"},"geometry":{"type":"Point","coordinates":[-75.7591283736773,45.38377965327053]}},{"type":"Feature","properties":{"OBJECTID":224,"BOARD":"OCDSB","CATEGORY":"Secondary","NAME":"Bell High School","NUM":"40","STREET":"ch. Cassidy Rd","PHONE":"613-828-9101","FULL_BOARD":"Ottawa-Carleton District School Board","CATEGORY_FR":"Secondaire","NAME_FR":"École secondaire Bell","BOARD_FR":"OCDSB","FULL_BOARD_FR":"Ottawa-Carleton District School Board"},"geometry":{"type":"Point","coordinates":[-75.8095120240159,45.32641442696761]}},{"type":"Feature","properties":{"OBJECTID":225,"BOARD":"OCDSB","CATEGORY":"Special Education","NAME":"Ottawa Children's Treatment Centre","NUM":"395","STREET":"ch. Smyth Rd","PHONE":"613-737-0871","FULL_BOARD":"Ottawa-Carleton District School Board","CATEGORY_FR":"Éducation Spéciale","NAME_FR":"Centre de traitement pour enfants d'Ottawa","BOARD_FR":"OCDSB","FULL_BOARD_FR":"Ottawa-Carleton District School Board"},"geometry":{"type":"Point","coordinates":[-75.65285977403046,45.4007353296888]}},{"type":"Feature","properties":{"OBJECTID":226,"BOARD":"CECCE","CATEGORY":"Secondary","NAME":"Catholic College Franco-Ouest","NUM":"411","STREET":"prom. Seyton Dr","PHONE":"613-820-2920","FULL_BOARD":"Conseil des écoles catholiques du Centre-Est","CATEGORY_FR":"Secondaire","NAME_FR":"Collège catholique Franco-Ouest","BOARD_FR":"CECCE","FULL_BOARD_FR":"Conseil des écoles catholiques du Centre-Est"},"geometry":{"type":"Point","coordinates":[-75.83391457814763,45.314716782812035]}},{"type":"Feature","properties":{"OBJECTID":227,"BOARD":"CÉPEO","CATEGORY":"Secondary","NAME":"Omer-Deslauriers Public High School","NUM":"159","STREET":"prom. Chesterton Dr","PHONE":"613-820-0992","FULL_BOARD":"Conseil des écoles publiques de l'Est de l'Ontario","CATEGORY_FR":"Secondaire","NAME_FR":"École secondaire publique Omer-Deslauriers","BOARD_FR":"CÉPEO","FULL_BOARD_FR":"Conseil des écoles publiques de l'Est de l'Ontario"},"geometry":{"type":"Point","coordinates":[-75.71658245232742,45.35004278460569]}},{"type":"Feature","properties":{"OBJECTID":228,"BOARD":"OCDSB","CATEGORY":"Elementary","NAME":"Viscount Alexander Public School","NUM":"55","STREET":"av. Mann Ave","PHONE":"613-239-2213","FULL_BOARD":"Ottawa-Carleton District School Board","CATEGORY_FR":"Élémentaire","NAME_FR":"École publique Viscount Alexander","BOARD_FR":"OCDSB","FULL_BOARD_FR":"Ottawa-Carleton District School Board"},"geometry":{"type":"Point","coordinates":[-75.67524418382467,45.420426894321714]}},{"type":"Feature","properties":{"OBJECTID":229,"BOARD":"CÉPEO","CATEGORY":"Elementary","NAME":"Francojeunesse Public Elementary School","NUM":"119","STREET":"rue Osgoode St","PHONE":"613-232-0020","FULL_BOARD":"Conseil des écoles publiques de l'Est de l'Ontario","CATEGORY_FR":"Élémentaire","NAME_FR":"École élémentaire publique Francojeunesse","BOARD_FR":"CÉPEO","FULL_BOARD_FR":"Conseil des écoles publiques de l'Est de l'Ontario"},"geometry":{"type":"Point","coordinates":[-75.68042064030945,45.424490656230645]}},{"type":"Feature","properties":{"OBJECTID":230,"BOARD":"OCDSB","CATEGORY":"Elementary","NAME":"Knoxdale Public School","NUM":"170","STREET":"ch. Greenbank Rd","PHONE":"613-828-0010","FULL_BOARD":"Ottawa-Carleton District School Board","CATEGORY_FR":"Élémentaire","NAME_FR":"École publique Knoxdale","BOARD_FR":"OCDSB","FULL_BOARD_FR":"Ottawa-Carleton District School Board"},"geometry":{"type":"Point","coordinates":[-75.78159244517259,45.327419278480555]}},{"type":"Feature","properties":{"OBJECTID":231,"BOARD":"OCDSB","CATEGORY":"Elementary","NAME":"Dunlop Public School","NUM":"1310","STREET":"ch. Pebble Rd","PHONE":"613-521-4611","FULL_BOARD":"Ottawa-Carleton District School Board","CATEGORY_FR":"Élémentaire","NAME_FR":"École publique Dunlop","BOARD_FR":"OCDSB","FULL_BOARD_FR":"Ottawa-Carleton District School Board"},"geometry":{"type":"Point","coordinates":[-75.64996875559598,45.36094710060373]}},{"type":"Feature","properties":{"OBJECTID":232,"BOARD":"OCSB","CATEGORY":"Elementary","NAME":"Assumption School","NUM":"236","STREET":"rue Lévis St","PHONE":"613-746-4822","FULL_BOARD":"Ottawa Catholic School Board","CATEGORY_FR":"Élémentaire","NAME_FR":"École Assumption","BOARD_FR":"OCSB","FULL_BOARD_FR":"Ottawa Catholic School Board"},"geometry":{"type":"Point","coordinates":[-75.66031401671596,45.434858871479776]}},{"type":"Feature","properties":{"OBJECTID":233,"BOARD":"OCDSB","CATEGORY":"Elementary","NAME":"Robert E. Wilson Public School","NUM":"373","STREET":"av. McArthur Ave","PHONE":"613-745-9489","FULL_BOARD":"Ottawa-Carleton District School Board","CATEGORY_FR":"Élémentaire","NAME_FR":"École publique Robert E. Wilson","BOARD_FR":"OCDSB","FULL_BOARD_FR":"Ottawa-Carleton District School Board"},"geometry":{"type":"Point","coordinates":[-75.65115649818317,45.43270023286756]}},{"type":"Feature","properties":{"OBJECTID":234,"BOARD":"CECCE","CATEGORY":"Elementary","NAME":"Sainte-Anne Catholic Elementary School","NUM":"235","STREET":"prom. Beausoleil Dr","PHONE":"613-789-3933","FULL_BOARD":"Conseil des écoles catholiques du Centre-Est","CATEGORY_FR":"Élémentaire","NAME_FR":"École élémentaire catholique Sainte-Anne","BOARD_FR":"CECCE","FULL_BOARD_FR":"Conseil des écoles catholiques du Centre-Est"},"geometry":{"type":"Point","coordinates":[-75.6819731923268,45.43255594405319]}},{"type":"Feature","properties":{"OBJECTID":235,"BOARD":"OCDSB","CATEGORY":"Elementary","NAME":"York Street Public School","NUM":"310","STREET":"rue York St","PHONE":"613-239-2214","FULL_BOARD":"Ottawa-Carleton District School Board","CATEGORY_FR":"Élémentaire","NAME_FR":"École publique de la rue York","BOARD_FR":"OCDSB","FULL_BOARD_FR":"Ottawa-Carleton District School Board"},"geometry":{"type":"Point","coordinates":[-75.68302858073328,45.43204162122586]}},{"type":"Feature","properties":{"OBJECTID":236,"BOARD":"OCSB","CATEGORY":"Elementary","NAME":"St. Kateri Tekakwitha School","NUM":"6400","STREET":"prom. Beausejour Dr","PHONE":"613-830-2454","FULL_BOARD":"Ottawa Catholic School Board","CATEGORY_FR":"Élémentaire","NAME_FR":"École St. Kateri Tekakwitha","BOARD_FR":"OCSB","FULL_BOARD_FR":"Ottawa Catholic School Board"},"geometry":{"type":"Point","coordinates":[-75.52312578767204,45.45845560091408]}},{"type":"Feature","properties":{"OBJECTID":237,"BOARD":"CECCE","CATEGORY":"Elementary","NAME":"Saint-Joseph d'Orléans Catholic Elementary School","NUM":"6664","STREET":"rue Carrière St","PHONE":"613-745-7968","FULL_BOARD":"Conseil des écoles catholiques du Centre-Est","CATEGORY_FR":"Élémentaire","NAME_FR":"École élémentaire catholique Saint-Joseph d'Orléans","BOARD_FR":"CECCE","FULL_BOARD_FR":"Conseil des écoles catholiques du Centre-Est"},"geometry":{"type":"Point","coordinates":[-75.52161503695983,45.46575052838212]}},{"type":"Feature","properties":{"OBJECTID":238,"BOARD":"OCDSB","CATEGORY":"Elementary","NAME":"Henry Larsen Elementary School","NUM":"1750","STREET":"prom. Sunview Dr","PHONE":"613-830-4634","FULL_BOARD":"Ottawa-Carleton District School Board","CATEGORY_FR":"Élémentaire","NAME_FR":"École élémentaire Henry Larsen","BOARD_FR":"OCDSB","FULL_BOARD_FR":"Ottawa-Carleton District School Board"},"geometry":{"type":"Point","coordinates":[-75.51259358175155,45.460210899547576]}},{"type":"Feature","properties":{"OBJECTID":239,"BOARD":"CÉPEO","CATEGORY":"Elementary","NAME":"Trille-des-Bois Public Elementary School","NUM":"140","STREET":"rue Genest St","PHONE":"613-747-6524","FULL_BOARD":"Conseil des écoles publiques de l'Est de l'Ontario","CATEGORY_FR":"Élémentaire","NAME_FR":"École élémentaire publique Trille des Bois","BOARD_FR":"CÉPEO","FULL_BOARD_FR":"Conseil des écoles publiques de l'Est de l'Ontario"},"geometry":{"type":"Point","coordinates":[-75.66969668899156,45.44065204768794]}},{"type":"Feature","properties":{"OBJECTID":240,"BOARD":"OCSB","CATEGORY":"Elementary","NAME":"Convent Glen Catholic School","NUM":"6212","STREET":"boul. Jeanne D'arc Blvd","PHONE":"613-824-8541","FULL_BOARD":"Ottawa Catholic School Board","CATEGORY_FR":"Élémentaire","NAME_FR":"École catholique Convent Glen","BOARD_FR":"OCSB","FULL_BOARD_FR":"Ottawa Catholic School Board"},"geometry":{"type":"Point","coordinates":[-75.54752514469968,45.473293943887626]}},{"type":"Feature","properties":{"OBJECTID":241,"BOARD":"OCSB","CATEGORY":"Elementary","NAME":"St. Michael School","NUM":"437","STREET":"rue Donald St","PHONE":"613-749-1642","FULL_BOARD":"Ottawa Catholic School Board","CATEGORY_FR":"Élémentaire","NAME_FR":"École St. Michael","BOARD_FR":"OCSB","FULL_BOARD_FR":"Ottawa Catholic School Board"},"geometry":{"type":"Point","coordinates":[-75.64861790230938,45.429159681985645]}},{"type":"Feature","properties":{"OBJECTID":242,"BOARD":"OCDSB","CATEGORY":"Elementary","NAME":"Queen Mary Street Public School","NUM":"557","STREET":"rue Queen Mary St","PHONE":"613-749-1692","FULL_BOARD":"Ottawa-Carleton District School Board","CATEGORY_FR":"Élémentaire","NAME_FR":"École publique de la rue Queen Mary","BOARD_FR":"OCDSB","FULL_BOARD_FR":"Ottawa-Carleton District School Board"},"geometry":{"type":"Point","coordinates":[-75.64240925910526,45.42628210401959]}},{"type":"Feature","properties":{"OBJECTID":243,"BOARD":"OCSB","CATEGORY":"Elementary","NAME":"Holy Family School","NUM":"245","STREET":"prom. Owl Dr","PHONE":"613-521-0475","FULL_BOARD":"Ottawa Catholic School Board","CATEGORY_FR":"Élémentaire","NAME_FR":"École Holy Family","BOARD_FR":"OCSB","FULL_BOARD_FR":"Ottawa Catholic School Board"},"geometry":{"type":"Point","coordinates":[-75.66323814525519,45.35353119195994]}},{"type":"Feature","properties":{"OBJECTID":244,"BOARD":"OCDSB","CATEGORY":"Elementary","NAME":"Bayview Public School","NUM":"185","STREET":"prom. Owl Dr","PHONE":"613-733-4726","FULL_BOARD":"Ottawa-Carleton District School Board","CATEGORY_FR":"Élémentaire","NAME_FR":"École publique Bayview","BOARD_FR":"OCDSB","FULL_BOARD_FR":"Ottawa-Carleton District School Board"},"geometry":{"type":"Point","coordinates":[-75.66561166491573,45.35527649576761]}},{"type":"Feature","properties":{"OBJECTID":245,"BOARD":"PRIVATE","CATEGORY":"Elementary","NAME":"Fernhill School","NUM":"50","STREET":"rue Vaughan St","PHONE":"613-746-0255","FULL_BOARD":" ","CATEGORY_FR":"Élémentaire","NAME_FR":"École Fenhill","BOARD_FR":"PRIVATE","FULL_BOARD_FR":" "},"geometry":{"type":"Point","coordinates":[-75.67789839736712,45.44028732292824]}},{"type":"Feature","properties":{"OBJECTID":246,"BOARD":"OCSB","CATEGORY":"Elementary","NAME":"Our Lady Of Victory School","NUM":"1175","STREET":"rue Soderlind St","PHONE":"613-828-5594","FULL_BOARD":"Ottawa Catholic School Board","CATEGORY_FR":"Élémentaire","NAME_FR":"École Our Lady Of Victory","BOARD_FR":"OCSB","FULL_BOARD_FR":"Ottawa Catholic School Board"},"geometry":{"type":"Point","coordinates":[-75.77993866739578,45.34984433313684]}},{"type":"Feature","properties":{"OBJECTID":247,"BOARD":"CÉPEO","CATEGORY":"Elementary","NAME":"Public Elementary School Mauril Bélanger","NUM":"307","STREET":"rue Montgomery St","PHONE":"613-747-6524","FULL_BOARD":"Conseil des écoles publiques de l'Est de l'Ontario","CATEGORY_FR":"Élémentaire","NAME_FR":"École élémentaire publique Mauril-Bélanger","BOARD_FR":"CÉPEO","FULL_BOARD_FR":"Conseil des écoles publiques de l'Est de l'Ontario"},"geometry":{"type":"Point","coordinates":[-75.66725421105654,45.432721289139266]}},{"type":"Feature","properties":{"OBJECTID":248,"BOARD":"OCDSB","CATEGORY":"Elementary","NAME":"Pinecrest  Public School","NUM":"1281","STREET":"ch. McWatters Rd","PHONE":"613-828-5115","FULL_BOARD":"Ottawa-Carleton District School Board","CATEGORY_FR":"Élémentaire","NAME_FR":"École publique Pinecrest","BOARD_FR":"OCDSB","FULL_BOARD_FR":"Ottawa-Carleton District School Board"},"geometry":{"type":"Point","coordinates":[-75.78509068970483,45.34406361578265]}},{"type":"Feature","properties":{"OBJECTID":249,"BOARD":"OCSB","CATEGORY":"Elementary","NAME":"St. Luke School, (Nepean)","NUM":"60","STREET":"prom. Mountshannon Dr","PHONE":"613-825-2520","FULL_BOARD":"Ottawa Catholic School Board","CATEGORY_FR":"Élémentaire","NAME_FR":"École St. Luke (Nepean)","BOARD_FR":"OCSB","FULL_BOARD_FR":"Ottawa Catholic School Board"},"geometry":{"type":"Point","coordinates":[-75.73513721830128,45.29115023898367]}},{"type":"Feature","properties":{"OBJECTID":250,"BOARD":"CECCE","CATEGORY":"Elementary","NAME":"Pierre-Elliott-Trudeau Catholic Elementary School","NUM":"601","STREET":"prom. Longfields Drive","PHONE":"613-521-1560","FULL_BOARD":"Conseil des écoles catholiques du Centre-Est","CATEGORY_FR":"Élémentaire","NAME_FR":"École élémentaire catholique Pierre-Elliott-Trudeau","BOARD_FR":"CECCE","FULL_BOARD_FR":"Conseil des écoles catholiques du Centre-Est"},"geometry":{"type":"Point","coordinates":[-75.74410086422608,45.28562120537368]}},{"type":"Feature","properties":{"OBJECTID":251,"BOARD":"OCDSB","CATEGORY":"Elementary","NAME":"Berrigan Elementary School","NUM":"199","STREET":"prom. Berrigan Dr","PHONE":"613-825-0092","FULL_BOARD":"Ottawa-Carleton District School Board","CATEGORY_FR":"Élémentaire","NAME_FR":"École élémentaire Berrigan","BOARD_FR":"OCDSB","FULL_BOARD_FR":"Ottawa-Carleton District School Board"},"geometry":{"type":"Point","coordinates":[-75.73842760974478,45.28037809367471]}},{"type":"Feature","properties":{"OBJECTID":252,"BOARD":"OCSB","CATEGORY":"Elementary","NAME":"St. Emily School","NUM":"500","STREET":"prom. Chapman Mills Dr","PHONE":"613-825-4300","FULL_BOARD":"Ottawa Catholic School Board","CATEGORY_FR":"Élémentaire","NAME_FR":"École St.Emily","BOARD_FR":"OCSB","FULL_BOARD_FR":"Ottawa Catholic School Board"},"geometry":{"type":"Point","coordinates":[-75.7242559405361,45.27129877572241]}},{"type":"Feature","properties":{"OBJECTID":253,"BOARD":"PRIVATE","CATEGORY":"Elementary","NAME":"Ottawa Christian School","NUM":"255","STREET":"prom. Tartan Dr","PHONE":"613-727-5066","FULL_BOARD":" ","CATEGORY_FR":"Élémentaire","NAME_FR":"École chrétienne d'Ottawa","BOARD_FR":"PRIVATE","FULL_BOARD_FR":" "},"geometry":{"type":"Point","coordinates":[-75.7655654315087,45.261242919081134]}},{"type":"Feature","properties":{"OBJECTID":254,"BOARD":"CECCE","CATEGORY":"Elementary","NAME":"Jean-Robert-Gauthier Catholic Elementary School","NUM":"651","STREET":"prom Chapman Mills Dr","PHONE":"613-820-0757","FULL_BOARD":"Conseil des écoles catholiques du Centre-Est","CATEGORY_FR":"Élémentaire","NAME_FR":"École élémentaire catholique Jean-Robert-Gauthier","BOARD_FR":"CECCE","FULL_BOARD_FR":"Conseil des écoles catholiques du Centre-Est"},"geometry":{"type":"Point","coordinates":[-75.73177271494853,45.27065948074339]}},{"type":"Feature","properties":{"OBJECTID":255,"BOARD":"PRIVATE","CATEGORY":"Elementary","NAME":"Ottawa Islamic School","NUM":"10","STREET":"rue Coral St","PHONE":"613-727-5066","FULL_BOARD":" ","CATEGORY_FR":"Élémentaire","NAME_FR":"École islamique d'Otatwa","BOARD_FR":"PRIVATE","FULL_BOARD_FR":" "},"geometry":{"type":"Point","coordinates":[-75.72128519033197,45.365594402396326]}},{"type":"Feature","properties":{"OBJECTID":256,"BOARD":"PRIVATE","CATEGORY":"Elementary","NAME":"Glebe Montessori School","NUM":"650","STREET":"rue Lyon St","PHONE":"613-237-3824","FULL_BOARD":" ","CATEGORY_FR":"Élémentaire","NAME_FR":"École Montessori du Glebe","BOARD_FR":"PRIVATE","FULL_BOARD_FR":" "},"geometry":{"type":"Point","coordinates":[-75.6924879421847,45.403508304419034]}},{"type":"Feature","properties":{"OBJECTID":257,"BOARD":"OCDSB","CATEGORY":"Elementary","NAME":"Hopewell Avenue Public School","NUM":"17","STREET":"av. Hopewell Ave","PHONE":"613-239-2348","FULL_BOARD":"Ottawa-Carleton District School Board","CATEGORY_FR":"Élémentaire","NAME_FR":"École publique de l'avenue Hopewell","BOARD_FR":"OCDSB","FULL_BOARD_FR":"Ottawa-Carleton District School Board"},"geometry":{"type":"Point","coordinates":[-75.68374048212122,45.39359303535768]}},{"type":"Feature","properties":{"OBJECTID":258,"BOARD":"OCDSB","CATEGORY":"Elementary","NAME":"Lady Evelyn Alternative School","NUM":"63","STREET":"av. Evelyn Ave","PHONE":"613-239-2404","FULL_BOARD":"Ottawa-Carleton District School Board","CATEGORY_FR":"Élémentaire","NAME_FR":"École alternative Lady Evelyn","BOARD_FR":"OCDSB","FULL_BOARD_FR":"Ottawa-Carleton District School Board"},"geometry":{"type":"Point","coordinates":[-75.67847984271452,45.411778523744154]}},{"type":"Feature","properties":{"OBJECTID":259,"BOARD":"OCSB","CATEGORY":"Elementary","NAME":"St. Gabriel School","NUM":"400","STREET":"prom. Keyrock Dr","PHONE":"613-271-6181","FULL_BOARD":"Ottawa Catholic School Board","CATEGORY_FR":"Élémentaire","NAME_FR":"École St.Gabriel","BOARD_FR":"OCSB","FULL_BOARD_FR":"Ottawa Catholic School Board"},"geometry":{"type":"Point","coordinates":[-75.93051253797813,45.324661528863544]}},{"type":"Feature","properties":{"OBJECTID":260,"BOARD":"CECCE","CATEGORY":"Elementary","NAME":"Saint-Rémi Catholic Elementary School","NUM":"100","STREET":"prom. Walden Dr","PHONE":"613-741-2360","FULL_BOARD":"Conseil des écoles catholiques du Centre-Est","CATEGORY_FR":"Élémentaire","NAME_FR":"École élémentaire catholique Saint-Rémi","BOARD_FR":"CECCE","FULL_BOARD_FR":"Conseil des écoles catholiques du Centre-Est"},"geometry":{"type":"Point","coordinates":[-75.92260924095683,45.32750908689134]}},{"type":"Feature","properties":{"OBJECTID":261,"BOARD":"OCDSB","CATEGORY":"Elementary","NAME":"Westwind Public School","NUM":"111","STREET":"prom. Hartsmere Dr","PHONE":"613-831-7840","FULL_BOARD":"Ottawa-Carleton District School Board","CATEGORY_FR":"Élémentaire","NAME_FR":"École publique Westwind","BOARD_FR":"OCDSB","FULL_BOARD_FR":"Ottawa-Carleton District School Board"},"geometry":{"type":"Point","coordinates":[-75.90707587579608,45.2467637832572]}},{"type":"Feature","properties":{"OBJECTID":262,"BOARD":"OCDSB","CATEGORY":"Elementary","NAME":"Chapman Mills Public School","NUM":"260","STREET":"man Leamington Way","PHONE":"613-823-3336","FULL_BOARD":"Ottawa-Carleton District School Board","CATEGORY_FR":"Élémentaire","NAME_FR":"École publique Chapman Mills","BOARD_FR":"OCDSB","FULL_BOARD_FR":"Ottawa-Carleton District School Board"},"geometry":{"type":"Point","coordinates":[-75.73067827947159,45.26894606416044]}},{"type":"Feature","properties":{"OBJECTID":263,"BOARD":"OCDSB","CATEGORY":"Elementary","NAME":"Greely Elementary School","NUM":"7066","STREET":"ch. Parkway Rd","PHONE":"613-821-2291","FULL_BOARD":"Ottawa-Carleton District School Board","CATEGORY_FR":"Élémentaire","NAME_FR":"École élémentaire Greely","BOARD_FR":"OCDSB","FULL_BOARD_FR":"Ottawa-Carleton District School Board"},"geometry":{"type":"Point","coordinates":[-75.5636011255297,45.26095531516083]}},{"type":"Feature","properties":{"OBJECTID":264,"BOARD":"OCSB","CATEGORY":"Elementary","NAME":"St. Mary School","NUM":"5536","STREET":"rue Bank St","PHONE":"613-822-2985","FULL_BOARD":"Ottawa Catholic School Board","CATEGORY_FR":"Élémentaire","NAME_FR":"École St. Mary","BOARD_FR":"OCSB","FULL_BOARD_FR":"Ottawa Catholic School Board"},"geometry":{"type":"Point","coordinates":[-75.57115209431343,45.279917970949334]}},{"type":"Feature","properties":{"OBJECTID":265,"BOARD":"PRIVATE","CATEGORY":"Elementary","NAME":"Joan of Arc Academy","NUM":"2221","STREET":"ch. Elmira Rd","PHONE":"613-728-6364","FULL_BOARD":" ","CATEGORY_FR":"Élémentaire","NAME_FR":"Académie Joan of Arc","BOARD_FR":"PRIVATE","FULL_BOARD_FR":" "},"geometry":{"type":"Point","coordinates":[-75.77772098028419,45.354572289785544]}},{"type":"Feature","properties":{"OBJECTID":266,"BOARD":"PRIVATE","CATEGORY":"Elementary","NAME":"Bishop Hamilton Christian Montessori School","NUM":"2199","STREET":"terr. Regency Terr","PHONE":"613-596-4013","FULL_BOARD":" ","CATEGORY_FR":"Élémentaire","NAME_FR":"École Montessori chrétienne Bishop Hamilton","BOARD_FR":"PRIVATE","FULL_BOARD_FR":" "},"geometry":{"type":"Point","coordinates":[-75.77230166695729,45.34925480922499]}},{"type":"Feature","properties":{"OBJECTID":267,"BOARD":"OCSB","CATEGORY":"Elementary","NAME":"St. George School","NUM":"130","STREET":"av. Keyworth Ave","PHONE":"613-728-8291","FULL_BOARD":"Ottawa Catholic School Board","CATEGORY_FR":"Élémentaire","NAME_FR":"Écoel St. George","BOARD_FR":"OCSB","FULL_BOARD_FR":"Ottawa Catholic School Board"},"geometry":{"type":"Point","coordinates":[-75.74807601895277,45.404127560989615]}},{"type":"Feature","properties":{"OBJECTID":268,"BOARD":"OCDSB","CATEGORY":"Elementary","NAME":"Elmdale Public School","NUM":"49","STREET":"rue Iona St","PHONE":"613-728-4653","FULL_BOARD":"Ottawa-Carleton District School Board","CATEGORY_FR":"Élémentaire","NAME_FR":"École publqiue Elmdale","BOARD_FR":"OCDSB","FULL_BOARD_FR":"Ottawa-Carleton District School Board"},"geometry":{"type":"Point","coordinates":[-75.73592453864721,45.39430818540678]}},{"type":"Feature","properties":{"OBJECTID":269,"BOARD":"OCSB","CATEGORY":"Elementary","NAME":"Holy Redeemer School","NUM":"75","STREET":"prom. McCurdy Dr","PHONE":"613-591-3256","FULL_BOARD":"Ottawa Catholic School Board","CATEGORY_FR":"Élémentaire","NAME_FR":"École Holy Redeemer","BOARD_FR":"OCSB","FULL_BOARD_FR":"Ottawa Catholic School Board"},"geometry":{"type":"Point","coordinates":[-75.90003041327725,45.302963364932104]}},{"type":"Feature","properties":{"OBJECTID":270,"BOARD":"OCDSB","CATEGORY":"Elementary","NAME":"Castlefrank Elementary School","NUM":"55","STREET":"prom. McCurdy Dr","PHONE":"613-592-8071","FULL_BOARD":"Ottawa-Carleton District School Board","CATEGORY_FR":"Élémentaire","NAME_FR":"École élémentaire Castlefrank","BOARD_FR":"OCDSB","FULL_BOARD_FR":"Ottawa-Carleton District School Board"},"geometry":{"type":"Point","coordinates":[-75.8972323614915,45.30522589526179]}},{"type":"Feature","properties":{"OBJECTID":271,"BOARD":"OCDSB","CATEGORY":"Elementary","NAME":"Katimavik Elementary School","NUM":"64","STREET":"prom. Chimo Dr","PHONE":"613-592-5462","FULL_BOARD":"Ottawa-Carleton District School Board","CATEGORY_FR":"Élémentaire","NAME_FR":"École élémentaire Katimavik","BOARD_FR":"OCDSB","FULL_BOARD_FR":"Ottawa-Carleton District School Board"},"geometry":{"type":"Point","coordinates":[-75.88962524351096,45.30974514890199]}},{"type":"Feature","properties":{"OBJECTID":272,"BOARD":"CECCE","CATEGORY":"Elementary","NAME":"Catholic Elementary School in The Heart of Ottawa","NUM":"88","STREET":"rue Main St","PHONE":"613-216-0017","FULL_BOARD":null,"CATEGORY_FR":"Élémentaire","NAME_FR":"École élémentaire catholique Au Coeur d'Ottawa","BOARD_FR":"CECCE","FULL_BOARD_FR":"Conseil des écoles catholiques du Centre-Est"},"geometry":{"type":"Point","coordinates":[-75.68003650272767,45.41166153921416]}},{"type":"Feature","properties":{"OBJECTID":273,"BOARD":"OCDSB","CATEGORY":"Elementary","NAME":"Agincourt Road Public School","NUM":"1250","STREET":"ch. Agincourt Rd","PHONE":"613-225-2750","FULL_BOARD":"Ottawa-Carleton District School Board","CATEGORY_FR":"Élémentaire","NAME_FR":"École publique Agincourt","BOARD_FR":"OCDSB","FULL_BOARD_FR":"Ottawa-Carleton District School Board"},"geometry":{"type":"Point","coordinates":[-75.75200312548986,45.36046334582257]}},{"type":"Feature","properties":{"OBJECTID":274,"BOARD":"CÉPEO","CATEGORY":"Elementary","NAME":"Ottawa West Public Elementary School","NUM":"20","STREET":"rue Harrison St","PHONE":"613-789-3020","FULL_BOARD":"Conseil des écoles publiques de l'Est de l'Ontario","CATEGORY_FR":"Élémentaire","NAME_FR":"École élémentaire publique Ottawa-Ouest","BOARD_FR":"CÉPEO","FULL_BOARD_FR":"Conseil des écoles publiques de l'Est de l'Ontario"},"geometry":{"type":"Point","coordinates":[-75.78811850179414,45.33681943301316]}},{"type":"Feature","properties":{"OBJECTID":275,"BOARD":"OCSB","CATEGORY":"Elementary","NAME":"St. John the Apostle School","NUM":"30","STREET":"av. Costello Ave","PHONE":"613-828-0644","FULL_BOARD":"Ottawa Catholic School Board","CATEGORY_FR":"Élémentaire","NAME_FR":"École St. John the Apostle","BOARD_FR":"OCSB","FULL_BOARD_FR":"Ottawa Catholic School Board"},"geometry":{"type":"Point","coordinates":[-75.7935622492968,45.33390290167492]}},{"type":"Feature","properties":{"OBJECTID":276,"BOARD":"PRIVATE","CATEGORY":"Elementary","NAME":"Westboro Academy","NUM":"1000 ","STREET":"ch. Brookfield Rd E","PHONE":"613-737-9543","FULL_BOARD":null,"CATEGORY_FR":"Élémentaire","NAME_FR":"Académie Westboro","BOARD_FR":"PRIVATE","FULL_BOARD_FR":null},"geometry":{"type":"Point","coordinates":[-75.6746958791247,45.37392414579593]}},{"type":"Feature","properties":{"OBJECTID":277,"BOARD":"OCDSB","CATEGORY":"Elementary","NAME":"Carleton Heights Public School","NUM":"1660","STREET":"prom. Prince Of Wales Dr","PHONE":"613-224-7922","FULL_BOARD":"Ottawa-Carleton District School Board","CATEGORY_FR":"Élémentaire","NAME_FR":"École publique Carleton Heights","BOARD_FR":"OCDSB","FULL_BOARD_FR":"Ottawa-Carleton District School Board"},"geometry":{"type":"Point","coordinates":[-75.70104045256015,45.36092844449885]}},{"type":"Feature","properties":{"OBJECTID":278,"BOARD":"OCDSB","CATEGORY":"Elementary","NAME":"W.E. Gowling Public School","NUM":"250","STREET":"av. Anna Ave","PHONE":"613-728-3537","FULL_BOARD":"Ottawa-Carleton District School Board","CATEGORY_FR":"Élémentaire","NAME_FR":"École publique W.E. Gowling","BOARD_FR":"OCDSB","FULL_BOARD_FR":"Ottawa-Carleton District School Board"},"geometry":{"type":"Point","coordinates":[-75.73186991266228,45.382457099052004]}},{"type":"Feature","properties":{"OBJECTID":279,"BOARD":"OCSB","CATEGORY":"Elementary","NAME":"St. Elizabeth School","NUM":"1366","STREET":"av. Coldrey Ave","PHONE":"613-728-4744","FULL_BOARD":"Ottawa Catholic School Board","CATEGORY_FR":"Élémentaire","NAME_FR":"École St. Elizabeth","BOARD_FR":"OCSB","FULL_BOARD_FR":"Ottawa Catholic School Board"},"geometry":{"type":"Point","coordinates":[-75.73656425141891,45.381969331729564]}},{"type":"Feature","properties":{"OBJECTID":280,"BOARD":"OCDSB","CATEGORY":"Elementary","NAME":"Broadview Avenue Public School","NUM":"535","STREET":"av. Dovercourt Ave","PHONE":"613-728-1721","FULL_BOARD":"Ottawa-Carleton District School Board","CATEGORY_FR":"Élémentaire","NAME_FR":"École publique Broadview","BOARD_FR":"OCDSB","FULL_BOARD_FR":"Ottawa-Carleton District School Board"},"geometry":{"type":"Point","coordinates":[-75.75766440992003,45.38172398266583]}},{"type":"Feature","properties":{"OBJECTID":281,"BOARD":"PRIVATE","CATEGORY":"Elementary","NAME":"Kanata Academy","NUM":"180","STREET":"prom. Huntmar Drive","PHONE":"613-599-5399","FULL_BOARD":" ","CATEGORY_FR":"Élémentaire","NAME_FR":"Académie de Kanata","BOARD_FR":"PRIVATE","FULL_BOARD_FR":" "},"geometry":{"type":"Point","coordinates":[-75.9241549900325,45.2923875844317]}},{"type":"Feature","properties":{"OBJECTID":282,"BOARD":"OCSB","CATEGORY":"Elementary","NAME":"Our Lady Of Peace School","NUM":"3877","STREET":"ch. Old Richmond Rd","PHONE":"613-828-4037","FULL_BOARD":"Ottawa Catholic School Board","CATEGORY_FR":"Élémentaire","NAME_FR":"École Our Lady Of Peace","BOARD_FR":"OCSB","FULL_BOARD_FR":"Ottawa Catholic School Board"},"geometry":{"type":"Point","coordinates":[-75.82695983738765,45.32131708430487]}},{"type":"Feature","properties":{"OBJECTID":283,"BOARD":"OCDSB","CATEGORY":"Elementary","NAME":"Bells Corners Public School","NUM":"3770","STREET":"ch. Old Richmond Rd","PHONE":"613-828-3100","FULL_BOARD":"Ottawa-Carleton District School Board","CATEGORY_FR":"Élémentaire","NAME_FR":"École publique Bells Corners","BOARD_FR":"OCDSB","FULL_BOARD_FR":"Ottawa-Carleton District School Board"},"geometry":{"type":"Point","coordinates":[-75.82524859797539,45.32471747175961]}},{"type":"Feature","properties":{"OBJECTID":284,"BOARD":"PRIVATE","CATEGORY":"Elementary","NAME":"Torah Day School of Ottawa","NUM":"1119","STREET":"rue Lazard St","PHONE":"613-274-0110","FULL_BOARD":" ","CATEGORY_FR":"Élémentaire","NAME_FR":"Torah jour scolaire d’Ottawa","BOARD_FR":"PRIVATE","FULL_BOARD_FR":" "},"geometry":{"type":"Point","coordinates":[-75.76356070350995,45.359909866876606]}},{"type":"Feature","properties":{"OBJECTID":285,"BOARD":"OCDSB","CATEGORY":"Elementary","NAME":"Alta Vista Public School","NUM":"1349","STREET":"av. Randall  Ave","PHONE":"613-733-7124","FULL_BOARD":"Ottawa-Carleton District School Board","CATEGORY_FR":"Élémentaire","NAME_FR":"École publique Alta Vista","BOARD_FR":"OCDSB","FULL_BOARD_FR":"Ottawa-Carleton District School Board"},"geometry":{"type":"Point","coordinates":[-75.66483689583094,45.38373278228714]}},{"type":"Feature","properties":{"OBJECTID":286,"BOARD":"CÉPEO","CATEGORY":"Elementary","NAME":"Gabrielle-Roy Public Elementary School","NUM":"3395","STREET":"ave. D'Aoust Ave","PHONE":"613-523-8429","FULL_BOARD":"Conseil des écoles publiques de l'Est de l'Ontario","CATEGORY_FR":"Élémentaire","NAME_FR":"École élémentaire publique Gabrielle-Roy","BOARD_FR":"CÉPEO","FULL_BOARD_FR":"Conseil des écoles publiques de l'Est de l'Ontario"},"geometry":{"type":"Point","coordinates":[-75.63453710397991,45.34860172590874]}},{"type":"Feature","properties":{"OBJECTID":287,"BOARD":"CECCE","CATEGORY":"Elementary","NAME":"Sainte-Bernadette Catholic Elementary School","NUM":"3781","STREET":"rue Sixth St","PHONE":"613-521-0875","FULL_BOARD":"Conseil des écoles catholiques du Centre-Est","CATEGORY_FR":"Élémentaire","NAME_FR":"École élémentaire catholique Sainte-Bernadette","BOARD_FR":"CECCE","FULL_BOARD_FR":"Conseil des écoles catholiques du Centre-Est"},"geometry":{"type":"Point","coordinates":[-75.62342902945328,45.35196419952324]}},{"type":"Feature","properties":{"OBJECTID":288,"BOARD":"OCSB","CATEGORY":"Elementary","NAME":"St. Bernard School","NUM":"1722","STREET":"rue St. Bernard St","PHONE":"613-521-5894","FULL_BOARD":"Ottawa Catholic School Board","CATEGORY_FR":"Élémentaire","NAME_FR":"École St. Bernard","BOARD_FR":"OCSB","FULL_BOARD_FR":"Ottawa Catholic School Board"},"geometry":{"type":"Point","coordinates":[-75.62492063886341,45.351298152195746]}},{"type":"Feature","properties":{"OBJECTID":289,"BOARD":"CECCE","CATEGORY":"Elementary","NAME":"Roger-Saint-Denis Catholic Elementary School","NUM":"186","STREET":"crois. Barrow Cres","PHONE":"613-521-3815","FULL_BOARD":"Conseil des écoles catholiques du Centre-Est","CATEGORY_FR":"Élémentaire","NAME_FR":"École élémentaire catholique Roger-Saint-Denis","BOARD_FR":"CECCE","FULL_BOARD_FR":"Conseil des écoles catholiques du Centre-Est"},"geometry":{"type":"Point","coordinates":[-75.88240172502135,45.31139815366275]}},{"type":"Feature","properties":{"OBJECTID":290,"BOARD":"PRIVATE","CATEGORY":"Elementary","NAME":"Ottawa Montessori School","NUM":"335","STREET":"rue Lindsay St","PHONE":"613-521-5185","FULL_BOARD":" ","CATEGORY_FR":"Élémentaire","NAME_FR":"École Montessori Ottawa","BOARD_FR":"PRIVATE","FULL_BOARD_FR":" "},"geometry":{"type":"Point","coordinates":[-75.65241803647265,45.40728014507806]}},{"type":"Feature","properties":{"OBJECTID":291,"BOARD":"CECCE","CATEGORY":"Elementary","NAME":"Catholic Elementary School La Verendrye","NUM":"614","STREET":"prom. Eastvale Dr","PHONE":"613-749-2349","FULL_BOARD":"Conseil des écoles catholiques du Centre-Est","CATEGORY_FR":"Élémentaire","NAME_FR":"École élémentaire catholique La Vérendrye","BOARD_FR":"CECCE","FULL_BOARD_FR":"Conseil des écoles catholiques du Centre-Est"},"geometry":{"type":"Point","coordinates":[-75.59757430913888,45.46032862400239]}},{"type":"Feature","properties":{"OBJECTID":292,"BOARD":"OCDSB","CATEGORY":"Elementary","NAME":"A. Lorne Cassidy Elementary School","NUM":"27","STREET":"rue Hobin St","PHONE":"613-831-3434","FULL_BOARD":"Ottawa-Carleton District School Board","CATEGORY_FR":"Élémentaire","NAME_FR":"École élémentaire A.-Lorne-Cassidy","BOARD_FR":"OCDSB","FULL_BOARD_FR":"Ottawa-Carleton District School Board"},"geometry":{"type":"Point","coordinates":[-75.93366671787508,45.26260625645252]}},{"type":"Feature","properties":{"OBJECTID":293,"BOARD":"OCSB","CATEGORY":"Elementary","NAME":"St. James School","NUM":"50","STREET":"prom. Stonehaven Dr","PHONE":"613-599-6600","FULL_BOARD":"Ottawa Catholic School Board","CATEGORY_FR":"Élémentaire","NAME_FR":"École St. James","BOARD_FR":"OCSB","FULL_BOARD_FR":"Ottawa Catholic School Board"},"geometry":{"type":"Point","coordinates":[-75.86087315007977,45.29124726886686]}},{"type":"Feature","properties":{"OBJECTID":294,"BOARD":"CÉPEO","CATEGORY":"Elementary","NAME":"Des Sentiers Public Elementary School","NUM":"2159","STREET":"rue Nantes St","PHONE":"613-837-9726","FULL_BOARD":"Conseil des écoles publiques de l'Est de l'Ontario","CATEGORY_FR":"Élémentaire","NAME_FR":"École élémentaire publique Des Sentiers","BOARD_FR":"CÉPEO","FULL_BOARD_FR":"Conseil des écoles publiques de l'Est de l'Ontario"},"geometry":{"type":"Point","coordinates":[-75.46075814431933,45.459368630106376]}},{"type":"Feature","properties":{"OBJECTID":295,"BOARD":"OCDSB","CATEGORY":"Elementary","NAME":"Stonecrest Elementary School","NUM":"3791","STREET":"ch. Stonecrest Rd","PHONE":"613-832-5527","FULL_BOARD":"Ottawa-Carleton District School Board","CATEGORY_FR":"Élémentaire","NAME_FR":"École élémentaire Stonecrest","BOARD_FR":"OCDSB","FULL_BOARD_FR":"Ottawa-Carleton District School Board"},"geometry":{"type":"Point","coordinates":[-76.11531386031083,45.43550489350752]}},{"type":"Feature","properties":{"OBJECTID":296,"BOARD":"PRIVATE","CATEGORY":"Elementary","NAME":"Community Christian School","NUM":"2681","STREET":"rue Glen St, RR3","PHONE":"613-821-3669","FULL_BOARD":" ","CATEGORY_FR":"Élémentaire","NAME_FR":"Écoel chrétienne communautaire","BOARD_FR":"PRIVATE","FULL_BOARD_FR":" "},"geometry":{"type":"Point","coordinates":[-75.47617180268026,45.23206674246661]}},{"type":"Feature","properties":{"OBJECTID":297,"BOARD":"OCSB","CATEGORY":"Elementary","NAME":"St. Brother André Catholic School","NUM":"1923","STREET":"prom. Elmridge Dr","PHONE":"613-741-0100","FULL_BOARD":"Ottawa Catholic School Board","CATEGORY_FR":"Élémentaire","NAME_FR":"École catholique St. Brother André ","BOARD_FR":"OCSB","FULL_BOARD_FR":"Ottawa Catholic School Board"},"geometry":{"type":"Point","coordinates":[-75.59962814803421,45.443733837752376]}},{"type":"Feature","properties":{"OBJECTID":298,"BOARD":"OCDSB","CATEGORY":"Elementary","NAME":"Roland Michener Public School","NUM":"100","STREET":"prom. Penfield Dr","PHONE":"613-592-2126","FULL_BOARD":"Ottawa-Carleton District School Board","CATEGORY_FR":"Élémentaire","NAME_FR":"École publique Roland-Michener","BOARD_FR":"OCDSB","FULL_BOARD_FR":"Ottawa-Carleton District School Board"},"geometry":{"type":"Point","coordinates":[-75.89317597391032,45.32839107181262]}},{"type":"Feature","properties":{"OBJECTID":299,"BOARD":"CECCE","CATEGORY":"Elementary","NAME":"Lamoureux Catholic Elementary School - Individualized Instruction","NUM":"2540","STREET":"av. Kaladar Ave","PHONE":"613-731-3713","FULL_BOARD":"Conseil des écoles catholiques du Centre-Est","CATEGORY_FR":"Élémentaire","NAME_FR":"École élémentaire catholique Lamoureux - Enseignement personnalisé","BOARD_FR":"CECCE","FULL_BOARD_FR":"Conseil des écoles catholiques du Centre-Est"},"geometry":{"type":"Point","coordinates":[-75.67229011892861,45.373468204494685]}},{"type":"Feature","properties":{"OBJECTID":300,"BOARD":"CÉPEO","CATEGORY":"Elementary","NAME":"Charlotte-Lemieux Public Elementary School","NUM":"2093","STREET":"prom. Bel-Air Dr","PHONE":"613-228-2613","FULL_BOARD":"Conseil des écoles publiques de l'Est de l'Ontario","CATEGORY_FR":"Élémentaire","NAME_FR":"École élémentaire publique Charlotte-Lemieux","BOARD_FR":"CÉPEO","FULL_BOARD_FR":"Conseil des écoles publiques de l'Est de l'Ontario"},"geometry":{"type":"Point","coordinates":[-75.76312868572352,45.362830187410474]}},{"type":"Feature","properties":{"OBJECTID":301,"BOARD":"OCDSB","CATEGORY":"Elementary","NAME":"Briargreen Public School","NUM":"19","STREET":"crois. Parkfield Cr","PHONE":"613-828-5027","FULL_BOARD":"Ottawa-Carleton District School Board","CATEGORY_FR":"Élémentaire","NAME_FR":"École publique Briargreen","BOARD_FR":"OCDSB","FULL_BOARD_FR":"Ottawa-Carleton District School Board"},"geometry":{"type":"Point","coordinates":[-75.77751377488076,45.33778904947714]}},{"type":"Feature","properties":{"OBJECTID":302,"BOARD":"OCDSB","CATEGORY":"Elementary","NAME":"Forest Valley Elementary School","NUM":"1570","STREET":"prom. Forest Valley Dr","PHONE":"613-824-0733","FULL_BOARD":"Ottawa-Carleton District School Board","CATEGORY_FR":"Élémentaire","NAME_FR":"École élémentaire Forest Valley","BOARD_FR":"OCDSB","FULL_BOARD_FR":"Ottawa-Carleton District School Board"},"geometry":{"type":"Point","coordinates":[-75.53816666315639,45.44930532630047]}},{"type":"Feature","properties":{"OBJECTID":303,"BOARD":"PRIVATE","CATEGORY":"Elementary","NAME":"Turnbull School","NUM":"1132","STREET":"av. Fisher Ave","PHONE":"613-729-9940","FULL_BOARD":" ","CATEGORY_FR":"Élémentaire","NAME_FR":"École Turnbull","BOARD_FR":"PRIVATE","FULL_BOARD_FR":" "},"geometry":{"type":"Point","coordinates":[-75.72111061802784,45.378535686287094]}},{"type":"Feature","properties":{"OBJECTID":304,"BOARD":"OCSB","CATEGORY":"Elementary","NAME":"St. Augustine School","NUM":"1009","STREET":"rue Arnot St","PHONE":"613-225-8020","FULL_BOARD":"Ottawa Catholic School Board","CATEGORY_FR":"Élémentaire","NAME_FR":"École St. Augustine","BOARD_FR":"OCSB","FULL_BOARD_FR":"Ottawa Catholic School Board"},"geometry":{"type":"Point","coordinates":[-75.71187881600758,45.368211470577194]}},{"type":"Feature","properties":{"OBJECTID":305,"BOARD":"OCSB","CATEGORY":"Elementary","NAME":"St. Gregory School","NUM":"148","STREET":"rue Meadowlands Dr W","PHONE":"613-224-3011","FULL_BOARD":"Ottawa Catholic School Board","CATEGORY_FR":"Élémentaire","NAME_FR":"École St. Gregory","BOARD_FR":"OCSB","FULL_BOARD_FR":"Ottawa Catholic School Board"},"geometry":{"type":"Point","coordinates":[-75.75062804823332,45.34390875725164]}},{"type":"Feature","properties":{"OBJECTID":306,"BOARD":"OCDSB","CATEGORY":"Elementary","NAME":"Meadowlands Public School","NUM":"10","STREET":"rue Fieldrow St","PHONE":"613-224-1733","FULL_BOARD":"Ottawa-Carleton District School Board","CATEGORY_FR":"Élémentaire","NAME_FR":"École publique Meadowlands","BOARD_FR":"OCDSB","FULL_BOARD_FR":"Ottawa-Carleton District School Board"},"geometry":{"type":"Point","coordinates":[-75.73676955598721,45.34490422497252]}},{"type":"Feature","properties":{"OBJECTID":307,"BOARD":"CECCE","CATEGORY":"Elementary","NAME":"Bernard-Grandmaître Catholic Elementary School","NUM":"4170","STREET":"ch. Spratt Rd","PHONE":"613-820-3814","FULL_BOARD":"Conseil des écoles catholiques du Centre-Est","CATEGORY_FR":"Élémentaire","NAME_FR":"École élémentaire catholique Bernard-Grandmaître","BOARD_FR":"CECCE","FULL_BOARD_FR":"Conseil des écoles catholiques du Centre-Est"},"geometry":{"type":"Point","coordinates":[-75.68276792826539,45.28526102019827]}},{"type":"Feature","properties":{"OBJECTID":308,"BOARD":"OCDSB","CATEGORY":"Elementary","NAME":"Lakeview Public School","NUM":"35","STREET":"ch. Corkstown Rd","PHONE":"613-828-8077","FULL_BOARD":"Ottawa-Carleton District School Board","CATEGORY_FR":"Élémentaire","NAME_FR":"École publique Lakeview","BOARD_FR":"OCDSB","FULL_BOARD_FR":"Ottawa-Carleton District School Board"},"geometry":{"type":"Point","coordinates":[-75.82367413964151,45.347726448039154]}},{"type":"Feature","properties":{"OBJECTID":309,"BOARD":"OCSB","CATEGORY":"Elementary","NAME":"Dr. F. J. McDonald Catholic School","NUM":"2860","STREET":"av. Ahearn Ave","PHONE":"613-829-3878","FULL_BOARD":"Ottawa Catholic School Board","CATEGORY_FR":"Élémentaire","NAME_FR":"École catholique  Dr. F. J. McDonald","BOARD_FR":"OCSB","FULL_BOARD_FR":"Ottawa Catholic School Board"},"geometry":{"type":"Point","coordinates":[-75.80099753483485,45.36012510894653]}},{"type":"Feature","properties":{"OBJECTID":310,"BOARD":"OCSB","CATEGORY":"Elementary","NAME":"St. Brigid School","NUM":"200","STREET":"ch. Springfield Rd","PHONE":"613-746-4888","FULL_BOARD":"Ottawa Catholic School Board","CATEGORY_FR":"Élémentaire","NAME_FR":"École St. Brigid","BOARD_FR":"OCSB","FULL_BOARD_FR":"Ottawa Catholic School Board"},"geometry":{"type":"Point","coordinates":[-75.67839463122162,45.445784863843635]}},{"type":"Feature","properties":{"OBJECTID":311,"BOARD":"OCDSB","CATEGORY":"Elementary","NAME":"Terry Fox Elementary School","NUM":"6400","STREET":"boul. Jeanne D'Arc Blvd","PHONE":"613-837-3251","FULL_BOARD":"Ottawa-Carleton District School Board","CATEGORY_FR":"Élémentaire","NAME_FR":"École élémentaire Terry-Fox","BOARD_FR":"OCDSB","FULL_BOARD_FR":"Ottawa-Carleton District School Board"},"geometry":{"type":"Point","coordinates":[-75.5398122959085,45.477854586663916]}},{"type":"Feature","properties":{"OBJECTID":312,"BOARD":"OCSB","CATEGORY":"Elementary","NAME":"St. Anne School","NUM":"500","STREET":"prom. Stonehaven Dr","PHONE":"613-271-0308","FULL_BOARD":"Ottawa Catholic School Board","CATEGORY_FR":"Élémentaire","NAME_FR":"École St. Anne","BOARD_FR":"OCSB","FULL_BOARD_FR":"Ottawa Catholic School Board"},"geometry":{"type":"Point","coordinates":[-75.84359596361139,45.28233745436271]}},{"type":"Feature","properties":{"OBJECTID":313,"BOARD":"OCDSB","CATEGORY":"Elementary","NAME":"Bridlewood Community Elementary School","NUM":"63","STREET":"prom. Bluegrass Dr","PHONE":"613-591-3683","FULL_BOARD":"Ottawa-Carleton District School Board","CATEGORY_FR":"Élémentaire","NAME_FR":"École élémentaire Bridlewood Community","BOARD_FR":"OCDSB","FULL_BOARD_FR":"Ottawa-Carleton District School Board"},"geometry":{"type":"Point","coordinates":[-75.86090123680545,45.28514384405088]}},{"type":"Feature","properties":{"OBJECTID":314,"BOARD":"OCDSB","CATEGORY":"Elementary","NAME":"Roch Carrier Elementary School","NUM":"401","STREET":"prom. Stonehaven Dr","PHONE":"613-254-8400","FULL_BOARD":"Ottawa-Carleton District School Board","CATEGORY_FR":"Élémentaire","NAME_FR":"École élémentaire Roch-Carrier","BOARD_FR":"OCDSB","FULL_BOARD_FR":"Ottawa-Carleton District School Board"},"geometry":{"type":"Point","coordinates":[-75.84694274589855,45.28341625293381]}},{"type":"Feature","properties":{"OBJECTID":315,"BOARD":"CÉPEO","CATEGORY":"Elementary/Secondary","NAME":"Maurice-Lapointe Public Elementary School","NUM":"17","STREET":"rue Bridgestone St","PHONE":"613-591-8585","FULL_BOARD":"Conseil des écoles publiques de l'Est de l'Ontario","CATEGORY_FR":"Élémentaire/Secondaire","NAME_FR":"École élémentaire publique Maurice-Lapointe","BOARD_FR":"CÉPEO","FULL_BOARD_FR":"Conseil des écoles publiques de l'Est de l'Ontario"},"geometry":{"type":"Point","coordinates":[-75.85903430318476,45.27865596549339]}},{"type":"Feature","properties":{"OBJECTID":316,"BOARD":"OCDSB","CATEGORY":"Elementary","NAME":"Fallingbrook Community Elementary School","NUM":"679","STREET":"crois. Deancourt Cr","PHONE":"613-830-8817","FULL_BOARD":"Ottawa-Carleton District School Board","CATEGORY_FR":"Élémentaire","NAME_FR":"École élémentaire Fallingbrook Community\r\n","BOARD_FR":"OCDSB","FULL_BOARD_FR":"Ottawa-Carleton District School Board"},"geometry":{"type":"Point","coordinates":[-75.48647112126167,45.48145304]}},{"type":"Feature","properties":{"OBJECTID":317,"BOARD":"CECCE","CATEGORY":"Elementary","NAME":"Catholic Elementary School Pioneer","NUM":"720","STREET":"prom. Merkley Dr","PHONE":"613-744-2448","FULL_BOARD":"Conseil des écoles catholiques du Centre-Est","CATEGORY_FR":"Élémentaire","NAME_FR":"École élémentaire catholique des Pionniers","BOARD_FR":"CECCE","FULL_BOARD_FR":"Conseil des écoles catholiques du Centre-Est"},"geometry":{"type":"Point","coordinates":[-75.48161095979181,45.47372099231886]}},{"type":"Feature","properties":{"OBJECTID":318,"BOARD":"OCDSB","CATEGORY":"Elementary","NAME":"Trillium Elementary School","NUM":"1515","STREET":"boul. Varennes Blvd","PHONE":"613-841-7393","FULL_BOARD":"Ottawa-Carleton District School Board","CATEGORY_FR":"Élémentaire","NAME_FR":"École élémentaire Trillium","BOARD_FR":"OCDSB","FULL_BOARD_FR":"Ottawa-Carleton District School Board"},"geometry":{"type":"Point","coordinates":[-75.47264030970273,45.47947768586696]}},{"type":"Feature","properties":{"OBJECTID":319,"BOARD":"CÉPEO","CATEGORY":"Elementary","NAME":"Jeanne-Sauvé Public Elementary School","NUM":"1917","STREET":"prom. Gardenway Dr","PHONE":"613-824-8160","FULL_BOARD":"Conseil des écoles publiques de l'Est de l'Ontario","CATEGORY_FR":"Élémentaire","NAME_FR":"École élémentaire publique Jeanne-Sauvé","BOARD_FR":"CÉPEO","FULL_BOARD_FR":"Conseil des écoles publiques de l'Est de l'Ontario"},"geometry":{"type":"Point","coordinates":[-75.485026588064,45.46561087725828]}},{"type":"Feature","properties":{"OBJECTID":320,"BOARD":"CECCE","CATEGORY":"Elementary","NAME":"Catholic Elementary School Rainbow Sky","NUM":"1830","STREET":"boul. Portobello Blvd","PHONE":"613-744-0486","FULL_BOARD":"Conseil des écoles catholiques du Centre-Est","CATEGORY_FR":"Élémentaire","NAME_FR":"École élémentaire catholique Arc-en-ciel","BOARD_FR":"CECCE","FULL_BOARD_FR":"Conseil des écoles catholiques du Centre-Est"},"geometry":{"type":"Point","coordinates":[-75.47067938984543,45.47143516083394]}},{"type":"Feature","properties":{"OBJECTID":321,"BOARD":"OCSB","CATEGORY":"Elementary","NAME":"St. Clare School","NUM":"2133","STREET":"prom. Gardenway Dr","PHONE":"613-834-6334","FULL_BOARD":"Ottawa Catholic School Board","CATEGORY_FR":"Élémentaire","NAME_FR":"École St. Clare","BOARD_FR":"OCSB","FULL_BOARD_FR":"Ottawa Catholic School Board"},"geometry":{"type":"Point","coordinates":[-75.47444611835822,45.46931971655021]}},{"type":"Feature","properties":{"OBJECTID":322,"BOARD":"OCDSB","CATEGORY":"Elementary","NAME":"Maple Ridge Elementary School","NUM":"1000","STREET":"rue Valin St","PHONE":"613-834-1927","FULL_BOARD":"Ottawa-Carleton District School Board","CATEGORY_FR":"Élémentaire","NAME_FR":"École élémentaire Maple Ridge","BOARD_FR":"OCDSB","FULL_BOARD_FR":"Ottawa-Carleton District School Board"},"geometry":{"type":"Point","coordinates":[-75.46183282314823,45.470692257892345]}},{"type":"Feature","properties":{"OBJECTID":323,"BOARD":"OCSB","CATEGORY":"Elementary","NAME":"St. Theresa School","NUM":"2000","STREET":"boul. Portobello Blvd","PHONE":"613-837-4114","FULL_BOARD":"Ottawa Catholic School Board","CATEGORY_FR":"Élémentaire","NAME_FR":"École St. Theresa","BOARD_FR":"OCSB","FULL_BOARD_FR":"Ottawa Catholic School Board"},"geometry":{"type":"Point","coordinates":[-75.46731948407032,45.463659347950674]}},{"type":"Feature","properties":{"OBJECTID":324,"BOARD":"CECCE","CATEGORY":"Elementary","NAME":"Catholic Elementary School Discovery","NUM":"866","STREET":"av. Scala Ave","PHONE":"613-744-5894","FULL_BOARD":"Conseil des écoles catholiques du Centre-Est","CATEGORY_FR":"Élémentaire","NAME_FR":"École élémentaire catholique de la Découverte","BOARD_FR":"CECCE","FULL_BOARD_FR":"Conseil des écoles catholiques du Centre-Est"},"geometry":{"type":"Point","coordinates":[-75.46158461773693,45.465335838612354]}},{"type":"Feature","properties":{"OBJECTID":325,"BOARD":"OCDSB","CATEGORY":"Elementary","NAME":"Avalon Public School","NUM":"2080","STREET":"boul. Portobello Blvd","PHONE":"613-834-7313","FULL_BOARD":"Ottawa-Carleton District School Board","CATEGORY_FR":"Élémentaire","NAME_FR":"École publique Avalon","BOARD_FR":"OCDSB","FULL_BOARD_FR":"Ottawa-Carleton District School Board"},"geometry":{"type":"Point","coordinates":[-75.46638378180238,45.45862064263824]}},{"type":"Feature","properties":{"OBJECTID":326,"BOARD":"OCDSB","CATEGORY":"International","NAME":"International Student Program Office","NUM":"440","STREET":"rue Albert St","PHONE":"613-239-0258","FULL_BOARD":"Ottawa-Carleton District School Board","CATEGORY_FR":"Intermédiaire","NAME_FR":"Bureau du programme pour étudiants internationaux","BOARD_FR":"OCDSB","FULL_BOARD_FR":"Ottawa-Carleton District School Board"},"geometry":{"type":"Point","coordinates":[-75.7063695382016,45.41677180984821]}},{"type":"Feature","properties":{"OBJECTID":327,"BOARD":"OCDSB","CATEGORY":"Outdoor Education","NAME":"Bill Mason Outdoor Education Centre","NUM":"3088","STREET":"ch. Dunrobin Rd","PHONE":"613-833-2080","FULL_BOARD":"Ottawa-Carleton District School Board","CATEGORY_FR":"Éducatifs en plein air","NAME_FR":"Centre éducatif à l'extérieur Bill-Mason","BOARD_FR":"OCDSB","FULL_BOARD_FR":"Ottawa-Carleton District School Board"},"geometry":{"type":"Point","coordinates":[-76.03413232655066,45.43395514823143]}},{"type":"Feature","properties":{"OBJECTID":328,"BOARD":"OCDSB","CATEGORY":"Outdoor Education","NAME":"MacSkimming Outdoor Ed. Centre","NUM":"3635","STREET":"Hwy 174","PHONE":"613-833-2080","FULL_BOARD":"Ottawa-Carleton District School Board","CATEGORY_FR":"Éducatifs en plein air","NAME_FR":"MacSkimming Outdoor Ed. Centre","BOARD_FR":"OCDSB","FULL_BOARD_FR":"Ottawa-Carleton District School Board"},"geometry":{"type":"Point","coordinates":[-75.35059154534723,45.52194377745968]}},{"type":"Feature","properties":{"OBJECTID":329,"BOARD":"OCSB","CATEGORY":"Elementary","NAME":"St. Francis of Assisi School","NUM":"795","STREET":"ch. Watters Rd","PHONE":"613-830-3215","FULL_BOARD":"Ottawa Catholic School Board","CATEGORY_FR":"Élémentaire","NAME_FR":"École St. Francis-of-Assisi","BOARD_FR":"OCSB","FULL_BOARD_FR":"Ottawa Catholic School Board"},"geometry":{"type":"Point","coordinates":[-75.47973872790755,45.478913247289306]}},{"type":"Feature","properties":{"OBJECTID":330,"BOARD":"OCSB","CATEGORY":"Elementary","NAME":"St. Dominic School","NUM":"2300","STREET":"prom. Esprit Dr","PHONE":"613-424-3760","FULL_BOARD":"Ottawa Catholic School Board","CATEGORY_FR":"Élémentaire","NAME_FR":"École St. Dominic","BOARD_FR":"OCSB","FULL_BOARD_FR":"Ottawa Catholic School Board"},"geometry":{"type":"Point","coordinates":[-75.46988177929794,45.45092224693615]}},{"type":"Feature","properties":{"OBJECTID":331,"BOARD":"PRIVATE","CATEGORY":"Elementary","NAME":"The Greenwoods Academy","NUM":"1056","STREET":"ch. Klondike Road","PHONE":"613-591-3100","FULL_BOARD":null,"CATEGORY_FR":"Élémentaire","NAME_FR":"L'Académie Greenwoods","BOARD_FR":"PRIVATE","FULL_BOARD_FR":null},"geometry":{"type":"Point","coordinates":[-75.92953372735634,45.35651766809277]}},{"type":"Feature","properties":{"OBJECTID":332,"BOARD":"PRIVATE","CATEGORY":"Elementary","NAME":"MindWare Academy","NUM":"985","STREET":"av. Pinecrest Ave","PHONE":"613-829-2694","FULL_BOARD":null,"CATEGORY_FR":"Élémentaire","NAME_FR":"Académie MindWare","BOARD_FR":"PRIVATE","FULL_BOARD_FR":null},"geometry":{"type":"Point","coordinates":[-75.79153101111567,45.35402818625032]}},{"type":"Feature","properties":{"OBJECTID":333,"BOARD":"PRIVATE","CATEGORY":"Elementary","NAME":"Westboro Montessori School Campus 2","NUM":"387","STREET":"av. Danforth Ave","PHONE":"613-680-0712","FULL_BOARD":null,"CATEGORY_FR":"Élémentaire","NAME_FR":"École Montessori de Westboro Campus 2","BOARD_FR":"PRIVATE","FULL_BOARD_FR":null},"geometry":{"type":"Point","coordinates":[-75.75580858037456,45.39060550037076]}},{"type":"Feature","properties":{"OBJECTID":334,"BOARD":"PRIVATE","CATEGORY":"Elementary","NAME":"Maryvale Academy of Ottawa","NUM":"2191","STREET":"av. Benjamin Ave","PHONE":"613-321-2186","FULL_BOARD":null,"CATEGORY_FR":"Élémentaire","NAME_FR":"Académie Maryvale d'Ottawa","BOARD_FR":"PRIVATE","FULL_BOARD_FR":null},"geometry":{"type":"Point","coordinates":[-75.76814400959917,45.363537323988524]}},{"type":"Feature","properties":{"OBJECTID":335,"BOARD":"PRIVATE","CATEGORY":"Elementary","NAME":"VINCI School","NUM":"149","STREET":"rue King George Street","PHONE":"613-842-7557","FULL_BOARD":null,"CATEGORY_FR":"Élémentaire","NAME_FR":"École VINCI","BOARD_FR":"PRIVATE","FULL_BOARD_FR":null},"geometry":{"type":"Point","coordinates":[-75.65803482644846,45.42574549500756]}},{"type":"Feature","properties":{"OBJECTID":336,"BOARD":"PRIVATE","CATEGORY":"Elementary","NAME":"Westboro Montessori School Campus 1","NUM":"307","STREET":"ch. Richmond Road","PHONE":"613-321-0788","FULL_BOARD":null,"CATEGORY_FR":"Élémentaire","NAME_FR":"École Montessori de Westboro Campus 1","BOARD_FR":"PRIVATE","FULL_BOARD_FR":null},"geometry":{"type":"Point","coordinates":[-75.75253903074397,45.39287317906613]}},{"type":"Feature","properties":{"OBJECTID":337,"BOARD":"PRIVATE","CATEGORY":"Elementary","NAME":"Manotick Montessori","NUM":"5710","STREET":"rue Longshadow St","PHONE":"613-692-1969","FULL_BOARD":null,"CATEGORY_FR":"Élémentaire","NAME_FR":"École Montessori de Manotick","BOARD_FR":"PRIVATE","FULL_BOARD_FR":null},"geometry":{"type":"Point","coordinates":[-75.64603367920569,45.244862861106384]}},{"type":"Feature","properties":{"OBJECTID":338,"BOARD":"PRIVATE","CATEGORY":"Elementary/Secondary","NAME":"Astolot Education Centre","NUM":"203 - 1187","STREET":"rue Bank St","PHONE":"613-260-5996","FULL_BOARD":null,"CATEGORY_FR":"Élémentaire/Secondaire","NAME_FR":"Centre d'éducation Astolot ","BOARD_FR":"PRIVATE","FULL_BOARD_FR":null},"geometry":{"type":"Point","coordinates":[-75.68138411848597,45.39212398321075]}},{"type":"Feature","properties":{"OBJECTID":339,"BOARD":"PRIVATE","CATEGORY":"Secondary","NAME":"Blyth Academy","NUM":"352","STREET":"av. Danforth Ave","PHONE":"613-627-7356","FULL_BOARD":null,"CATEGORY_FR":"Secondaire","NAME_FR":"Académie Blyth","BOARD_FR":"PRIVATE","FULL_BOARD_FR":null},"geometry":{"type":"Point","coordinates":[-75.75418147088358,45.39094867753555]}},{"type":"Feature","properties":{"OBJECTID":340,"BOARD":"PRIVATE","CATEGORY":"Secondary","NAME":"Abraar Secondary School","NUM":"1085","STREET":"ave. Grenon Ave","PHONE":"613-820-0044","FULL_BOARD":null,"CATEGORY_FR":"Secondaire","NAME_FR":"École secondaire Abraar","BOARD_FR":"PRIVATE","FULL_BOARD_FR":null},"geometry":{"type":"Point","coordinates":[-75.79456881067432,45.35158619582125]}},{"type":"Feature","properties":{"OBJECTID":341,"BOARD":"PRIVATE","CATEGORY":"Secondary","NAME":"Ottawa Montessori School - The Element","NUM":"425","STREET":"Marché Way, Unit 201","PHONE":"613-862-8578","FULL_BOARD":null,"CATEGORY_FR":"Secondaire","NAME_FR":"École Montessori d'Ottawa - L'Elément","BOARD_FR":"PRIVATE","FULL_BOARD_FR":null},"geometry":{"type":"Point","coordinates":[-75.68295364147565,45.400931717350566]}},{"type":"Feature","properties":{"OBJECTID":342,"BOARD":"PRIVATE","CATEGORY":"Elementary","NAME":"Parkdale Montessori School","NUM":"555B","STREET":"av. Parkdale Ave","PHONE":"613-216-7275","FULL_BOARD":null,"CATEGORY_FR":"Élémentaire","NAME_FR":"École Montessori de Parkdale","BOARD_FR":"PRIVATE","FULL_BOARD_FR":null},"geometry":{"type":"Point","coordinates":[-75.72606106287871,45.39660620680209]}},{"type":"Feature","properties":{"OBJECTID":343,"BOARD":"OCDSB","CATEGORY":"Elementary","NAME":"Half Moon Bay Public School","NUM":"3525","STREET":"av. River Run Ave","PHONE":"613-692-5454","FULL_BOARD":"Ottawa-Carleton District School Board","CATEGORY_FR":"Élémentaire","NAME_FR":"École publique Half Moon Bay","BOARD_FR":"OCDSB","FULL_BOARD_FR":"Ottawa-Carleton District School Board"},"geometry":{"type":"Point","coordinates":[-75.74660034026587,45.253327998381536]}},{"type":"Feature","properties":{"OBJECTID":344,"BOARD":"OCDSB","CATEGORY":"Elementary","NAME":"Summerside Public School","NUM":"2350","STREET":"boul. Portobello Blvd","PHONE":"613-424-3208","FULL_BOARD":"Ottawa-Carleton District School Board","CATEGORY_FR":"Élémentaire","NAME_FR":"École publique Summerside","BOARD_FR":"OCDSB","FULL_BOARD_FR":"Ottawa-Carleton District School Board"},"geometry":{"type":"Point","coordinates":[-75.46365072941566,45.450485513675915]}},{"type":"Feature","properties":{"OBJECTID":345,"BOARD":"OCDSB","CATEGORY":"Elementary","NAME":"Kanata Highlands Public School","NUM":"425","STREET":"prom. Terry Fox Dr","PHONE":"613-591-6098","FULL_BOARD":"Ottawa-Carleton District School Board","CATEGORY_FR":"Élémentaire","NAME_FR":"École publique Kanata Highlands","BOARD_FR":"OCDSB","FULL_BOARD_FR":"Ottawa-Carleton District School Board"},"geometry":{"type":"Point","coordinates":[-75.9382204550184,45.3384623247515]}},{"type":"Feature","properties":{"OBJECTID":346,"BOARD":"PRIVATE","CATEGORY":"Elementary","NAME":"Educara Montessori Child Care","NUM":"272","STREET":"prom. Tartan Dr","PHONE":"613-702-1116","FULL_BOARD":null,"CATEGORY_FR":"Élémentaire","NAME_FR":"Garde d’enfants Educara Montessori","BOARD_FR":"PRIVATE","FULL_BOARD_FR":null},"geometry":{"type":"Point","coordinates":[-75.76676490878846,45.260508800344724]}},{"type":"Feature","properties":{"OBJECTID":348,"BOARD":"CÉPEO","CATEGORY":"Elementary","NAME":"Louise-Arbour Public Elementary School","NUM":"175","STREET":"rue Beech Street","PHONE":"613-729-7134","FULL_BOARD":"Conseil des écoles publiques de l'Est de l'Ontario","CATEGORY_FR":"Élémentaire","NAME_FR":"École élémentaire publique Louise-Arbour","BOARD_FR":"CÉPEO","FULL_BOARD_FR":"Conseil des écoles publiques de l'Est de l'Ontario"},"geometry":{"type":"Point","coordinates":[-75.71520596112262,45.3992215421443]}},{"type":"Feature","properties":{"OBJECTID":349,"BOARD":"PRIVATE","CATEGORY":"Secondary","NAME":"Cedar Ridge High School","NUM":"275","STREET":"prom. Michael Cowpland Dr.","PHONE":"613-592-9019","FULL_BOARD":null,"CATEGORY_FR":"Secondaire","NAME_FR":"École secondaire Cedar Ridge","BOARD_FR":"PRIVATE","FULL_BOARD_FR":null},"geometry":{"type":"Point","coordinates":[-75.87452728997181,45.284912965976915]}},{"type":"Feature","properties":{"OBJECTID":350,"BOARD":"PRIVATE","CATEGORY":"Elementary","NAME":"Ottawa Adventist School","NUM":"2191","STREET":"av. Benjamin Ave","PHONE":"613-722-3770","FULL_BOARD":null,"CATEGORY_FR":"Élémentaire","NAME_FR":"École adventiste d'Ottawa","BOARD_FR":"PRIVATE","FULL_BOARD_FR":null},"geometry":{"type":"Point","coordinates":[-75.76800962073433,45.36341958821656]}},{"type":"Feature","properties":{"OBJECTID":351,"BOARD":"PRIVATE","CATEGORY":"Elementary/Secondary","NAME":"St-Laurent Academy Inc","NUM":"641","STREET":"641 av. Sladen Ave","PHONE":"613-842-8047","FULL_BOARD":null,"CATEGORY_FR":"Élémentaire/Secondaire","NAME_FR":"Académie St-Laurent Inc","BOARD_FR":"PRIVATE","FULL_BOARD_FR":null},"geometry":{"type":"Point","coordinates":[-75.64324032920217,45.4402399630577]}},{"type":"Feature","properties":{"OBJECTID":352,"BOARD":"PRIVATE","CATEGORY":"Elementary/Secondary","NAME":"Tarbiyah Learning Academy","NUM":"572","STREET":"prom. Moodie Dr","PHONE":"613-421-1700","FULL_BOARD":null,"CATEGORY_FR":"Élémentaire/Secondaire","NAME_FR":"Académie d'apprentissage de Tarbiyah","BOARD_FR":"PRIVATE","FULL_BOARD_FR":null},"geometry":{"type":"Point","coordinates":[-75.82746606769467,45.31130982010447]}},{"type":"Feature","properties":{"OBJECTID":353,"BOARD":"PRIVATE","CATEGORY":"Secondary","NAME":"Ottawa Torah Institute","NUM":"1400","STREET":"av. Coldrey Ave","PHONE":"613-244-9119","FULL_BOARD":null,"CATEGORY_FR":"Secondaire","NAME_FR":"Institut de la Torah d'Ottawa","BOARD_FR":"PRIVATE","FULL_BOARD_FR":null},"geometry":{"type":"Point","coordinates":[-75.73907662187631,45.38059033328102]}},{"type":"Feature","properties":{"OBJECTID":354,"BOARD":"PRIVATE","CATEGORY":"Elementary/Secondary","NAME":"Peak Centre Academy","NUM":"1565","STREET":"ch. Maple Grove Rd","PHONE":"613-693-1083","FULL_BOARD":null,"CATEGORY_FR":"Élémentaire/Secondaire","NAME_FR":"Académie de Peak Centre","BOARD_FR":"PRIVATE","FULL_BOARD_FR":null},"geometry":{"type":"Point","coordinates":[-75.90907392212576,45.29741493553744]}},{"type":"Feature","properties":{"OBJECTID":355,"BOARD":"PRIVATE","CATEGORY":"Elementary","NAME":"Our Lady of Mount Carmel Private School","NUM":"40","STREET":"rue Cobourg Street","PHONE":"819-328-7265","FULL_BOARD":null,"CATEGORY_FR":"Élémentaire","NAME_FR":"École Notre-Dame du Mont Carmel","BOARD_FR":"PRIVATE","FULL_BOARD_FR":null},"geometry":{"type":"Point","coordinates":[-75.6815076107864,45.43422266263301]}},{"type":"Feature","properties":{"OBJECTID":356,"BOARD":"PRIVATE","CATEGORY":"Elementary","NAME":"Edelweiss Private Academy","NUM":"21","STREET":"privé Nadolny Sachs Priv","PHONE":"613-225-9273","FULL_BOARD":null,"CATEGORY_FR":"Élémentaire","NAME_FR":"Académie privée Edelweiss","BOARD_FR":"PRIVATE","FULL_BOARD_FR":null},"geometry":{"type":"Point","coordinates":[-75.75167453343703,45.375595116644455]}},{"type":"Feature","properties":{"OBJECTID":357,"BOARD":"PRIVATE","CATEGORY":"Secondary","NAME":"The circle of knowledge","NUM":"405","STREET":"boul. St-Laurent Blvd","PHONE":"613-697-4351","FULL_BOARD":null,"CATEGORY_FR":"Secondaire","NAME_FR":"le cercle des savoirs","BOARD_FR":"PRIVATE","FULL_BOARD_FR":null},"geometry":{"type":"Point","coordinates":[-75.6497424690776,45.447382804059124]}},{"type":"Feature","properties":{"OBJECTID":358,"BOARD":"PRIVATE","CATEGORY":"Secondary","NAME":"The Element","NUM":"425","STREET":"voie du Marche Way","PHONE":"613-862-8578","FULL_BOARD":null,"CATEGORY_FR":"Secondaire","NAME_FR":"L'élément","BOARD_FR":"PRIVATE","FULL_BOARD_FR":null},"geometry":{"type":"Point","coordinates":[-75.6830087567116,45.400910251221745]}},{"type":"Feature","properties":{"OBJECTID":359,"BOARD":"PRIVATE","CATEGORY":"Elementary/Secondary","NAME":"Ottawa Victory Christian Academy","NUM":"1080","STREET":"rue St. Pierre St","PHONE":"613-800-1541","FULL_BOARD":null,"CATEGORY_FR":"Élémentaire/Secondaire","NAME_FR":"Académie chrétienne de victoire d'Ottawa","BOARD_FR":"PRIVATE","FULL_BOARD_FR":null},"geometry":{"type":"Point","coordinates":[-75.52336961289804,45.475567853254056]}},{"type":"Feature","properties":{"OBJECTID":360,"BOARD":"PRIVATE","CATEGORY":"Elementary","NAME":"Al-Furqan Islamic School","NUM":"2825","STREET":"av. Dumaurier Ave","PHONE":"613-680-7261","FULL_BOARD":null,"CATEGORY_FR":"Élémentaire","NAME_FR":"École Furqan","BOARD_FR":"PRIVATE","FULL_BOARD_FR":null},"geometry":{"type":"Point","coordinates":[-75.79463588158838,45.35158440168067]}},{"type":"Feature","properties":{"OBJECTID":361,"BOARD":"PRIVATE","CATEGORY":"Elementary","NAME":"IBN Batouta Private School","NUM":"6479","STREET":"ch. Russell Rd","PHONE":"613-730-6396","FULL_BOARD":null,"CATEGORY_FR":"Élémentaire","NAME_FR":"École IBN Batouta","BOARD_FR":"PRIVATE","FULL_BOARD_FR":null},"geometry":{"type":"Point","coordinates":[-75.45704738803526,45.370202470813894]}},{"type":"Feature","properties":{"OBJECTID":362,"BOARD":"PRIVATE","CATEGORY":"Elementary","NAME":"Ahlul-Bayt Islamic School","NUM":"200","STREET":"rue Baribeau Street","PHONE":"613-526-0774","FULL_BOARD":null,"CATEGORY_FR":"Élémentaire","NAME_FR":"Ahlul-Bayt école islamique","BOARD_FR":"PRIVATE","FULL_BOARD_FR":null},"geometry":{"type":"Point","coordinates":[-75.66758829630734,45.438131337015214]}},{"type":"Feature","properties":{"OBJECTID":363,"BOARD":"PRIVATE","CATEGORY":"Elementary","NAME":"Ganon Preschool","NUM":"21","STREET":"Nadolny Sachs Private","PHONE":"613-798-9818","FULL_BOARD":null,"CATEGORY_FR":"Élémentaire","NAME_FR":"Préscolaire Ganon","BOARD_FR":"PRIVATE","FULL_BOARD_FR":null},"geometry":{"type":"Point","coordinates":[-75.7518433601166,45.3757985714395]}},{"type":"Feature","properties":{"OBJECTID":364,"BOARD":"PRIVATE","CATEGORY":"Elementary","NAME":"Providence Academy","NUM":"998","STREET":"rue Frances Street","PHONE":"613-744-8489","FULL_BOARD":null,"CATEGORY_FR":"Élémentaire","NAME_FR":"Académie Providence ","BOARD_FR":"PRIVATE","FULL_BOARD_FR":null},"geometry":{"type":"Point","coordinates":[-75.64845963802095,45.42740943646685]}},{"type":"Feature","properties":{"OBJECTID":365,"BOARD":"CECCE","CATEGORY":"Secondary","NAME":"Catholic High School Paul Desmarais","NUM":"5315","STREET":"rue. Abbott St E","PHONE":"613-744-2618","FULL_BOARD":"Conseil des écoles catholiques du Centre-Est","CATEGORY_FR":"Secondaire","NAME_FR":"École secondaire catholique Paul-Desmarais","BOARD_FR":"CECCE","FULL_BOARD_FR":"Conseil des écoles catholiques du Centre-Est"},"geometry":{"type":"Point","coordinates":[-75.89821933690091,45.27489596815748]}},{"type":"Feature","properties":{"OBJECTID":366,"BOARD":"CECCE","CATEGORY":"Secondary","NAME":"Catholic College Mer Bleue\r","NUM":"6401","STREET":"chemin Renaud Road","PHONE":"613-744-4022","FULL_BOARD":"Conseil des écoles catholiques du Centre-Est","CATEGORY_FR":"Secondaire","NAME_FR":"Collège catholique Mer Bleue","BOARD_FR":"CECCE","FULL_BOARD_FR":"Conseil des écoles catholiques du Centre-Est"},"geometry":{"type":"Point","coordinates":[-75.50410946550856,45.43616796543856]}},{"type":"Feature","properties":{"OBJECTID":367,"BOARD":"CECCE","CATEGORY":"Elementary","NAME":"Catholic Elementary School Our Place","NUM":"665","STREET":"prom. des Aubépine Dr ","PHONE":"613-744-1486","FULL_BOARD":"Conseil des écoles catholiques du Centre-Est","CATEGORY_FR":"Élémentaire","NAME_FR":"École élémentaire catholique Notre-Place","BOARD_FR":"CECCE","FULL_BOARD_FR":"Conseil des écoles catholiques du Centre-Est"},"geometry":{"type":"Point","coordinates":[-75.48433667473927,45.44752262763779]}},{"type":"Feature","properties":{"OBJECTID":368,"BOARD":"CÉPEO","CATEGORY":"Elementary","NAME":"Michel-Dupuis Public Elementary School","NUM":"715","STREET":"av. Brian Good Ave","PHONE":"613-822-2201","FULL_BOARD":"Conseil des écoles publiques de l'Est de l'Ontario","CATEGORY_FR":"Élémentaire","NAME_FR":"École élémentaire publique Michel-Dupuis","BOARD_FR":"CÉPEO","FULL_BOARD_FR":"Conseil des écoles publiques de l'Est de l'Ontario"},"geometry":{"type":"Point","coordinates":[-75.69412073531646,45.2680313430082]}},{"type":"Feature","properties":{"OBJECTID":369,"BOARD":"PRIVATE","CATEGORY":"Elementary","NAME":"Ottawa Jewish Community School","NUM":"31","STREET":"Priv. Nadolny Sachs Priv","PHONE":"613-722-0020","FULL_BOARD":null,"CATEGORY_FR":"Élémentaire","NAME_FR":"École communautaire juive Ottawa","BOARD_FR":"PRIVATE","FULL_BOARD_FR":null},"geometry":{"type":"Point","coordinates":[-75.75234898945067,45.37510324394208]}},{"type":"Feature","properties":{"OBJECTID":370,"BOARD":"PRIVATE","CATEGORY":"Elementary","NAME":"Westboro Jewish Montessori Preschool","NUM":"192","STREET":"av. Switzer Ave","PHONE":"613-729-7712","FULL_BOARD":null,"CATEGORY_FR":"Élémentaire","NAME_FR":"Westboro juif Montessori préscolaire","BOARD_FR":"PRIVATE","FULL_BOARD_FR":null},"geometry":{"type":"Point","coordinates":[-75.74176794212818,45.38527418557207]}},{"type":"Feature","properties":{"OBJECTID":371,"BOARD":"PRIVATE","CATEGORY":"Elementary","NAME":"St. Timothy's Classical Academy","NUM":"1061","STREET":"ch. Pinecrest Road","PHONE":"613-794-1750","FULL_BOARD":null,"CATEGORY_FR":null,"NAME_FR":"Académie classique de Saint-Timothée","BOARD_FR":"PRIVATE","FULL_BOARD_FR":null},"geometry":{"type":"Point","coordinates":[-75.79007616615685,45.35149410431636]}},{"type":"Feature","properties":{"OBJECTID":372,"BOARD":"OCSB","CATEGORY":"Elementary","NAME":"St. Benedict School","NUM":"2525","STREET":"ch. River Mist Rd","PHONE":"613-692-1005","FULL_BOARD":"Ottawa Catholic School Board","CATEGORY_FR":"Élémentaire","NAME_FR":"École St. Benedict","BOARD_FR":"OCSB","FULL_BOARD_FR":"Ottawa Catholic School Board"},"geometry":{"type":"Point","coordinates":[-75.73513454581331,45.241649268851816]}},{"type":"Feature","properties":{"OBJECTID":373,"BOARD":"PRIVATE","CATEGORY":"Elementary","NAME":"Ambassadors Christian School","NUM":"2031","STREET":"rue Stittsville Main St","PHONE":"613-400-4022","FULL_BOARD":null,"CATEGORY_FR":"Élémentaire","NAME_FR":"École chrétienne ambassadeurs","BOARD_FR":"PRIVATE","FULL_BOARD_FR":null},"geometry":{"type":"Point","coordinates":[-75.81545659486584,45.32848602394254]}},{"type":"Feature","properties":{"OBJECTID":374,"BOARD":"OCDSB","CATEGORY":"Elementary","NAME":"Vimy Ridge Public School","NUM":"4180","STREET":"prom. Kelly Farm Dr","PHONE":"613-425-4400","FULL_BOARD":"Ottawa-Carleton District School Board","CATEGORY_FR":"Élémentaire","NAME_FR":"École publique de Vimy Ridge","BOARD_FR":"OCDSB","FULL_BOARD_FR":"Ottawa-Carleton District School Board"},"geometry":{"type":"Point","coordinates":[-75.60153327712247,45.31680502284282]}},{"type":"Feature","properties":{"OBJECTID":375,"BOARD":"CECCE","CATEGORY":"Elementary","NAME":"Notre-Dame-des-Champs Elementary Public School","NUM":"6280","STREET":"chemin Renaud Rd","PHONE":"613-741-5813","FULL_BOARD":"Conseil des écoles catholiques du Centre-Est","CATEGORY_FR":"Élémentaire","NAME_FR":"École élémentaire catholique Notre-Dame-des-Champs","BOARD_FR":"CECCE","FULL_BOARD_FR":"Conseil des écoles catholiques du Centre-Est"},"geometry":{"type":"Point","coordinates":[-75.50913515414595,45.432656421399145]}},{"type":"Feature","properties":{"OBJECTID":376,"BOARD":"OCSB","CATEGORY":"Elementary","NAME":"St. Isabel School","NUM":"785","STREET":"ch. Goulbourn Forced Road","PHONE":"613-271-9542","FULL_BOARD":"Ottawa Catholic School Board","CATEGORY_FR":"Élémentaire","NAME_FR":"École St. Isabel","BOARD_FR":"OCSB","FULL_BOARD_FR":"Ottawa Catholic School Board"},"geometry":{"type":"Point","coordinates":[-75.94108213357738,45.33688582338989]}},{"type":"Feature","properties":{"OBJECTID":377,"BOARD":"PRIVATE","CATEGORY":"Secondary","NAME":"Bibleway Ministires","NUM":"500","STREET":"Bride Private","PHONE":"613 838-4238","FULL_BOARD":null,"CATEGORY_FR":"Secondaire","NAME_FR":"Ministères Bibleway","BOARD_FR":"PRIVATE","FULL_BOARD_FR":null},"geometry":{"type":"Point","coordinates":[-75.80027920510274,45.26961262158559]}}]}